{"outcome": "pending", "round": 1, "points": 0, "cities": {"Abuja": {"name": "Abuja", "latitude": 9.077381, "longitude": 7.401908, "population": 2750, "connections": ["Melbourne", "Warszawa", "Libreville", "Boston", "Roma"], "economy": "o", "government": "-", "hygiene": "-", "awareness": "-"}, "Accra": {"name": "Accra", "latitude": 5.602139, "longitude": -0.186598, "population": 1594, "connections": ["Madrid", "San Juan", "Bamako", "Bratislava", "Yamoussoukro"], "economy": "-", "government": "o", "hygiene": "-", "awareness": "-"}, "Albuquerque": {"name": "Albuquerque", "latitude": 35.086263, "longitude": -106.646962, "population": 910, "connections": ["Ouagadougou", "\u0535\u0580\u0587\u0561\u0576"], "economy": "o", "government": "o", "hygiene": "o", "awareness": "o"}, "Amsterdam": {"name": "Amsterdam", "latitude": 52.367178, "longitude": 4.891943, "population": 864, "connections": ["\u041d\u04b1\u0440-\u0421\u04b1\u043b\u0442\u0430\u043d", "Tegucigalpa", "San Jos\u00e9", "Montevideo", "\u0623\u0628\u0648 \u0638\u0628\u064a", "Rio de Janeiro"], "economy": "++", "government": "+", "hygiene": "++", "awareness": "++"}, "Anchorage": {"name": "Anchorage", "latitude": 61.216336, "longitude": -149.907299, "population": 403, "connections": ["Toulouse", "Chicago", "Lilongwe", "A\u015fgabat", "La Habana", "Ciudad de C\u00f3rdoba"], "economy": "+", "government": "++", "hygiene": "+", "awareness": "+"}, "Andorra la Vella": {"name": "Andorra la Vella", "latitude": 42.506548, "longitude": 1.521481, "population": 22, "connections": [], "economy": "+", "government": "+", "hygiene": "+", "awareness": "+"}, "Ankara": {"name": "Ankara", "latitude": 39.932257, "longitude": 32.865068, "population": 5445, "connections": ["Dakar", "Bogot\u00e1", "Belfast", "Sydney", "G\u00f6teborg", "\u9999\u6e2f", "\uc11c\uc6b8\ud2b9\ubcc4\uc2dc", "Kinshasa"], "economy": "+", "government": "o", "hygiene": "o", "awareness": "o"}, "Antananarivo": {"name": "Antananarivo", "latitude": -18.87857, "longitude": 47.507362, "population": 1816, "connections": ["Tijuana", "\u06a9\u0627\u0628\u0644", "Reykjav\u00edk", "\u9999\u6e2f", "\u0f50\u0f72\u0f58\u0f0b\u0f55\u0f74\u0f0b", "Recife", "\u0627\u0650\u0646\u0652\u062c\u064e\u0645\u0650\u064a\u0646\u064e\u0627"], "economy": "o", "government": "o", "hygiene": "o", "awareness": "-"}, "Asunci\u00f3n": {"name": "Asunci\u00f3n", "latitude": -25.264861, "longitude": -57.574745, "population": 525, "connections": ["\u12a0\u12f2\u1235 \u12a0\u1260\u1263", "\u0423\u043b\u0430\u0430\u043d\u0431\u0430\u0430\u0442\u0430\u0440", "Seattle"], "economy": "o", "government": "o", "hygiene": "o", "awareness": "o"}, "Atlanta": {"name": "Atlanta", "latitude": 33.748283, "longitude": -84.389707, "population": 5790, "connections": ["\u91cd\u5e86\u5e02", "Bujumbura", "\u092e\u0941\u0902\u092c\u0908", "\u6210\u90fd\u5e02", "New Orleans", "London", "Luanda", "Ciudad de Panam\u00e1"], "economy": "o", "government": "o", "hygiene": "o", "awareness": "o"}, "Austin": {"name": "Austin", "latitude": 30.265588, "longitude": -97.747916, "population": 2056, "connections": ["Toronto", "Oslo", "Freetown", "\u0646\u0648\u0627\u0643\u0634\u0648\u0637", "M\u00fcnchen"], "economy": "+", "government": "+", "hygiene": "o", "awareness": "o"}, "A\u015fgabat": {"name": "A\u015fgabat", "latitude": 37.959876, "longitude": 58.338167, "population": 1032, "connections": ["San Jos\u00e9", "Madrid", "El Paso", "\u0422\u043e\u0448\u043a\u0435\u043d\u0442", "Anchorage"], "economy": "o", "government": "o", "hygiene": "o", "awareness": "o"}, "Bak\u0131": {"name": "Bak\u0131", "latitude": 40.407905, "longitude": 49.864914, "population": 2236, "connections": ["Montreal", "Phoenix", "Wellington", "\u4e4c\u9c81\u6728\u9f50\u5e02", "El Paso", "\u06a9\u0627\u0628\u0644", "\u0423\u043b\u0430\u0430\u043d\u0431\u0430\u0430\u0442\u0430\u0440"], "economy": "o", "government": "o", "hygiene": "o", "awareness": "+"}, "Bamako": {"name": "Bamako", "latitude": 12.641059, "longitude": -8.001008, "population": 2009, "connections": ["Cape Town", "Pretoria", "Accra", "\u53f0\u5317", "Berlin", "La Habana"], "economy": "o", "government": "o", "hygiene": "o", "awareness": "o"}, "Bang\u00ee": {"name": "Bang\u00ee", "latitude": 4.394482, "longitude": 18.556256, "population": 833, "connections": ["\u0628\u064a\u0631\u0648\u062a", "\u0423\u043b\u0430\u0430\u043d\u0431\u0430\u0430\u0442\u0430\u0440"], "economy": "-", "government": "o", "hygiene": "-", "awareness": "-"}, "Banjul": {"name": "Banjul", "latitude": 13.454812, "longitude": -16.579555, "population": 31, "connections": [], "economy": "o", "government": "o", "hygiene": "-", "awareness": "o"}, "Barcelona": {"name": "Barcelona", "latitude": 41.407388, "longitude": 2.174172, "population": 1615, "connections": ["Dakar", "Zagreb", "Paris", "Stockholm", "Philadelphia", "Managua"], "economy": "++", "government": "o", "hygiene": "+", "awareness": "+"}, "Belfast": {"name": "Belfast", "latitude": 54.597843, "longitude": -5.93041, "population": 280, "connections": ["San Francisco", "Recife", "\u0643\u0648\u0627\u0644\u0627 \u0644\u0648\u0645\u06a4\u0648\u0631", "Santiago de Chile", "\u062f\u0645\u0634\u0642", "Ankara"], "economy": "o", "government": "+", "hygiene": "+", "awareness": "+"}, "Belmopan": {"name": "Belmopan", "latitude": 17.251314, "longitude": -88.75891, "population": 14, "connections": [], "economy": "o", "government": "o", "hygiene": "+", "awareness": "o"}, "Bergen": {"name": "Bergen", "latitude": 60.406287, "longitude": 5.323408, "population": 272, "connections": ["\u05d9\u05e8\u05d5\u05e9\u05dc\u05d9\u05dd", "Porto Alegre", "Praha", "Dallas"], "economy": "+", "government": "++", "hygiene": "+", "awareness": "++"}, "Berlin": {"name": "Berlin", "latitude": 52.520861, "longitude": 13.409419, "population": 3748, "connections": ["\u0928\u0908 \u0926\u093f\u0932\u094d\u0932\u0940", "Luanda", "Bamako", "Sevilla", "\u0915\u093e\u0920\u092e\u093e\u0921\u094c\u0901", "Minneapolis"], "economy": "++", "government": "+", "hygiene": "+", "awareness": "+"}, "Bern": {"name": "Bern", "latitude": 46.94822, "longitude": 7.448085, "population": 133, "connections": ["\u06a9\u0627\u0628\u0644", "\u0421\u043a\u043e\u043f\u0458\u0435"], "economy": "++", "government": "+", "hygiene": "++", "awareness": "++"}, "Bissau": {"name": "Bissau", "latitude": 11.862489, "longitude": -15.583656, "population": 388, "connections": ["G\u00f6teborg", "San Salvador"], "economy": "o", "government": "o", "hygiene": "o", "awareness": "o"}, "Bloemfontein": {"name": "Bloemfontein", "latitude": -29.082368, "longitude": 26.161928, "population": 256, "connections": ["San Juan", "Roma", "Phoenix", "\u0639\u0645\u0627\u0646"], "economy": "o", "government": "o", "hygiene": "o", "awareness": "o"}, "Bogot\u00e1": {"name": "Bogot\u00e1", "latitude": 4.711245, "longitude": -74.074171, "population": 7181, "connections": ["Dakar", "\u0628\u063a\u062f\u0627\u062f", "H\u00e0 N\u1ed9i", "Santiago de Chile", "Bratislava", "Ankara", "Rio de Janeiro", "K\u00f8benhavn", "\u0643\u0648\u0627\u0644\u0627 \u0644\u0648\u0645\u06a4\u0648\u0631", "Bras\u00edlia", "Lima", "\u09a2\u09be\u0995\u09be"], "economy": "o", "government": "o", "hygiene": "o", "awareness": "o"}, "Boston": {"name": "Boston", "latitude": 42.361278, "longitude": -71.05749, "population": 685, "connections": ["Hamburg", "Abuja", "Madrid", "Wien"], "economy": "o", "government": "+", "hygiene": "o", "awareness": "+"}, "Bras\u00edlia": {"name": "Bras\u00edlia", "latitude": -15.794443, "longitude": -47.881742, "population": 4292, "connections": ["\u0639\u0645\u0627\u0646", "\u4e34\u6c82\u5e02", "\u0627\u0644\u0645\u0646\u0627\u0645\u0629", "Denver", "Bogot\u00e1", "L\u00ebtzebuerg"], "economy": "o", "government": "o", "hygiene": "o", "awareness": "o"}, "Bratislava": {"name": "Bratislava", "latitude": 48.14715, "longitude": 17.102178, "population": 424, "connections": ["Accra", "Bogot\u00e1", "\u0639\u0645\u0627\u0646"], "economy": "o", "government": "o", "hygiene": "o", "awareness": "o"}, "Brazzaville": {"name": "Brazzaville", "latitude": -4.261914, "longitude": 15.243356, "population": 1827, "connections": ["\u041f\u043e\u0434\u0433\u043e\u0440\u0438\u0446\u0430", "Seattle", "\u042f\u043a\u0443\u0442\u0441\u043a", "\u0637\u0631\u0627\u0628\u0644\u0633", "\u53a6\u95e8\u5e02", "Rio de Janeiro"], "economy": "o", "government": "-", "hygiene": "o", "awareness": "-"}, "Brisbane": {"name": "Brisbane", "latitude": -27.46719, "longitude": 153.017885, "population": 2280, "connections": ["Nantes", "\u041a\u0438\u0457\u0432", "Oulu", "New Orleans", "San Juan"], "economy": "++", "government": "++", "hygiene": "+", "awareness": "+"}, "Bruxelles": {"name": "Bruxelles", "latitude": 50.849102, "longitude": 4.349639, "population": 179, "connections": ["\uc11c\uc6b8\ud2b9\ubcc4\uc2dc", "Milwaukee", "\u0d9a\u0ddc\u0dc5\u0db9"], "economy": "+", "government": "+", "hygiene": "++", "awareness": "++"}, "Bucure\u0219ti": {"name": "Bucure\u0219ti", "latitude": 44.424811, "longitude": 26.098756, "population": 1836, "connections": ["Kingston", "\u6606\u660e\u5e02", "Malabo", "\u53a6\u95e8\u5e02", "Kansas City"], "economy": "o", "government": "+", "hygiene": "+", "awareness": "o"}, "Budapest": {"name": "Budapest", "latitude": 47.497368, "longitude": 19.023866, "population": 1756, "connections": ["\u0628\u063a\u062f\u0627\u062f", "Milwaukee", "\u0627\u0644\u0645\u0646\u0627\u0645\u0629", "La Paz", "\u53a6\u95e8\u5e02", "\u09a2\u09be\u0995\u09be"], "economy": "o", "government": "o", "hygiene": "o", "awareness": "o"}, "Buenos Aires": {"name": "Buenos Aires", "latitude": -34.62654, "longitude": -58.429867, "population": 2890, "connections": ["\u5317\u4eac\u5e02", "\u0646\u0648\u0627\u0643\u0634\u0648\u0637", "\u897f\u5b89\u5e02", "Houston", "Lima", "\u062f\u0645\u0634\u0642"], "economy": "o", "government": "o", "hygiene": "o", "awareness": "o"}, "Bujumbura": {"name": "Bujumbura", "latitude": -3.362274, "longitude": 29.36568, "population": 497, "connections": ["\u0e01\u0e23\u0e38\u0e07\u0e40\u0e17\u0e1e\u0e21\u0e2b\u0e32\u0e19\u0e04\u0e23", "Philadelphia", "Dallas", "Atlanta", "Los Angeles", "New York City"], "economy": "o", "government": "-", "hygiene": "o", "awareness": "-"}, "Cape Town": {"name": "Cape Town", "latitude": -33.932314, "longitude": 18.432142, "population": 434, "connections": ["\u062a\u0648\u0646\u0633", "Bamako", "\ud3c9\uc591"], "economy": "o", "government": "o", "hygiene": "o", "awareness": "o"}, "Caracas": {"name": "Caracas", "latitude": 10.481213, "longitude": -66.904444, "population": 2082, "connections": ["H\u00e0 N\u1ed9i", "Lisboa", "\u9999\u6e2f", "\uc11c\uc6b8\ud2b9\ubcc4\uc2dc", "\u12a0\u12f2\u1235 \u12a0\u1260\u1263"], "economy": "-", "government": "-", "hygiene": "-", "awareness": "-"}, "Cayenne": {"name": "Cayenne", "latitude": 4.922256, "longitude": -52.31476, "population": 58, "connections": [], "economy": "o", "government": "o", "hygiene": "o", "awareness": "o"}, "Charlotte": {"name": "Charlotte", "latitude": 35.23056, "longitude": -80.83915, "population": 2474, "connections": ["\u53f0\u5317", "Vancouver", "Madrid", "Tallinn", "Ciudad de Guatemala", "Nantes"], "economy": "+", "government": "o", "hygiene": "+", "awareness": "o"}, "Chicago": {"name": "Chicago", "latitude": 41.879165, "longitude": -87.65026, "population": 9555, "connections": ["Ciudad de M\u00e9xico", "\u062a\u0647\u0631\u0627\u0646", "\u0414\u0443\u0448\u0430\u043d\u0431\u0435", "\u0643\u0648\u0627\u0644\u0627 \u0644\u0648\u0645\u06a4\u0648\u0631", "\u5e83\u5cf6\u5e02", "\u4e0a\u6d77\u5e02", "\uc11c\uc6b8\ud2b9\ubcc4\uc2dc", "Luanda", "Anchorage"], "economy": "o", "government": "+", "hygiene": "o", "awareness": "o"}, "Chi\u0219in\u0103u": {"name": "Chi\u0219in\u0103u", "latitude": 47.009915, "longitude": 28.861951, "population": 670, "connections": ["San Francisco", "Pittsburgh"], "economy": "+", "government": "o", "hygiene": "++", "awareness": "+"}, "Christchurch": {"name": "Christchurch", "latitude": -43.533957, "longitude": 172.633404, "population": 382, "connections": ["Ouagadougou", "Recife", "Montreal"], "economy": "+", "government": "++", "hygiene": "++", "awareness": "+"}, "Cincinnati": {"name": "Cincinnati", "latitude": 39.102491, "longitude": -84.505384, "population": 2165, "connections": ["Melbourne", "Manaus", "Prishtin\u00eb", "\u0411\u0435\u043e\u0433\u0440\u0430\u0434", "Cleveland", "\u0623\u0633\u0645\u0631\u0629"], "economy": "o", "government": "+", "hygiene": "+", "awareness": "+"}, "Citt\u00e0 del Vaticano": {"name": "Citt\u00e0 del Vaticano", "latitude": 41.904207, "longitude": 12.453601, "population": 1, "connections": [], "economy": "+", "government": "++", "hygiene": "++", "awareness": "++"}, "Citt\u00e0 di San Marino": {"name": "Citt\u00e0 di San Marino", "latitude": 43.939173, "longitude": 12.4478, "population": 4, "connections": [], "economy": "+", "government": "+", "hygiene": "+", "awareness": "+"}, "Ciudad de C\u00f3rdoba": {"name": "Ciudad de C\u00f3rdoba", "latitude": -31.420498, "longitude": -64.188166, "population": 1391, "connections": ["Anchorage", "\u0423\u043b\u0430\u0430\u043d\u0431\u0430\u0430\u0442\u0430\u0440", "\u0411\u0435\u043e\u0433\u0440\u0430\u0434", "\u042f\u043a\u0443\u0442\u0441\u043a", "\u1014\u1031\u1015\u103c\u100a\u103a\u1010\u1031\u102c\u103a", "\u062f\u0645\u0634\u0642"], "economy": "o", "government": "o", "hygiene": "o", "awareness": "o"}, "Ciudad de Guatemala": {"name": "Ciudad de Guatemala", "latitude": 14.627538, "longitude": -90.514192, "population": 2450, "connections": ["Winnipeg", "\u53f0\u5317", "Ottawa", "Charlotte", "Las Vegas", "Managua"], "economy": "o", "government": "+", "hygiene": "o", "awareness": "+"}, "Ciudad de M\u00e9xico": {"name": "Ciudad de M\u00e9xico", "latitude": 19.432127, "longitude": -99.146368, "population": 8855, "connections": ["\u0391\u03b8\u03ae\u03bd\u03b1", "Conakry", "Dallas", "Lima", "Libreville", "Kigali", "Chicago", "Washington, D.C."], "economy": "o", "government": "o", "hygiene": "o", "awareness": "+"}, "Ciudad de Panam\u00e1": {"name": "Ciudad de Panam\u00e1", "latitude": 8.983738, "longitude": -79.519064, "population": 477, "connections": ["Nashville", "\u0e01\u0e23\u0e38\u0e07\u0e40\u0e17\u0e1e\u0e21\u0e2b\u0e32\u0e19\u0e04\u0e23", "\u0627\u0644\u0631\u064a\u0627\u0636", "Atlanta", "Lima"], "economy": "+", "government": "+", "hygiene": "o", "awareness": "+"}, "Cleveland": {"name": "Cleveland", "latitude": 41.497511, "longitude": -81.692816, "population": 2077, "connections": ["Cincinnati", "\u0ea7\u0ebd\u0e87\u0e88\u0eb1\u0e99", "Detroit", "Yaound\u00e9", "Las Vegas"], "economy": "+", "government": "o", "hygiene": "o", "awareness": "+"}, "Cockburn Town": {"name": "Cockburn Town", "latitude": 21.467465, "longitude": -71.139579, "population": 5, "connections": [], "economy": "+", "government": "++", "hygiene": "++", "awareness": "+"}, "Conakry": {"name": "Conakry", "latitude": 9.642003, "longitude": -13.575557, "population": 1660, "connections": ["Ciudad de M\u00e9xico", "\u041a\u0438\u0457\u0432", "Pittsburgh", "London", "Wien"], "economy": "o", "government": "o", "hygiene": "o", "awareness": "o"}, "Dakar": {"name": "Dakar", "latitude": 14.716335, "longitude": -17.467371, "population": 1146, "connections": ["Bogot\u00e1", "Barcelona", "\u0421\u043e\u0444\u0438\u044f", "Ankara", "\u0645\u0633\u0642\u0637"], "economy": "-", "government": "-", "hygiene": "-", "awareness": "-"}, "Dallas": {"name": "Dallas", "latitude": 32.77903, "longitude": -96.796782, "population": 7233, "connections": ["Ciudad de M\u00e9xico", "Bergen", "\u0645\u0633\u0642\u0637", "Freetown", "\u092e\u0941\u0902\u092c\u0908", "\u0928\u0908 \u0926\u093f\u0932\u094d\u0932\u0940", "\u897f\u5b89\u5e02", "Bujumbura"], "economy": "++", "government": "+", "hygiene": "++", "awareness": "+"}, "Denver": {"name": "Denver", "latitude": 39.737331, "longitude": -104.993821, "population": 2853, "connections": ["Bras\u00edlia", "Juba", "Toulouse", "\u0ea7\u0ebd\u0e87\u0e88\u0eb1\u0e99", "\u53f0\u5317", "\u0411\u0435\u043e\u0433\u0440\u0430\u0434", "La Habana"], "economy": "++", "government": "o", "hygiene": "+", "awareness": "+"}, "Detroit": {"name": "Detroit", "latitude": 42.33112, "longitude": -83.044962, "population": 4298, "connections": ["Tegucigalpa", "Cleveland", "\u0414\u043e\u043d\u0435\u0446\u044c\u043a", "\u0411\u0438\u0448\u043a\u0435\u043a", "\u1014\u1031\u1015\u103c\u100a\u103a\u1010\u1031\u102c\u103a", "Freetown", "Manaus"], "economy": "o", "government": "o", "hygiene": "o", "awareness": "+"}, "Dodoma": {"name": "Dodoma", "latitude": -6.163048, "longitude": 35.751349, "population": 2084, "connections": ["Montevideo", "Tijuana", "\u0414\u0443\u0448\u0430\u043d\u0431\u0435", "\u0627\u0644\u0631\u0650\u0651\u0628\u064e\u0627\u0637\u200e", "Montreal", "Melbourne"], "economy": "o", "government": "o", "hygiene": "o", "awareness": "o"}, "Dublin": {"name": "Dublin", "latitude": 53.349658, "longitude": -6.260816, "population": 544, "connections": ["Paris", "San Juan"], "economy": "+", "government": "+", "hygiene": "+", "awareness": "+"}, "Edinburgh": {"name": "Edinburgh", "latitude": 55.952531, "longitude": -3.189204, "population": 482, "connections": ["Riga", "\u041f\u0435\u0440\u043c\u044c"], "economy": "++", "government": "+", "hygiene": "++", "awareness": "++"}, "Edmonton": {"name": "Edmonton", "latitude": 53.545514, "longitude": -113.495475, "population": 1412, "connections": ["\u06a9\u0627\u0628\u0644", "Georgetown (Guyana)", "Monrovia", "Santiago de Chile", "Juba"], "economy": "+", "government": "+", "hygiene": "+", "awareness": "o"}, "El Paso": {"name": "El Paso", "latitude": 31.761445, "longitude": -106.480144, "population": 840, "connections": ["A\u015fgabat", "Bak\u0131", "\u53f0\u5317", "H\u00e0 N\u1ed9i", "\u6771\u4eac", "\u0645\u062f\u064a\u0646\u0629 \u0627\u0644\u062c\u0632\u0627\u0626\u0631"], "economy": "-", "government": "o", "hygiene": "o", "awareness": "-"}, "Freetown": {"name": "Freetown", "latitude": 8.463847, "longitude": -13.229604, "population": 1056, "connections": ["Austin", "Detroit", "Praha", "Dallas", "\u179a\u17b6\u1787\u1792\u17b6\u1793\u17b8\u200b\u1797\u17d2\u1793\u17c6\u1796\u17c1\u1789"], "economy": "o", "government": "-", "hygiene": "-", "awareness": "-"}, "Gaborone": {"name": "Gaborone", "latitude": -24.629578, "longitude": 25.927756, "population": 232, "connections": ["Washington, D.C.", "Quito"], "economy": "o", "government": "o", "hygiene": "o", "awareness": "o"}, "Gda\u0144sk": {"name": "Gda\u0144sk", "latitude": 54.351072, "longitude": 18.648802, "population": 582, "connections": ["Sydney", "Kampala", "Vancouver", "Zagreb", "London", "Lungsod ng Maynila", "Nairobi"], "economy": "+", "government": "o", "hygiene": "+", "awareness": "+"}, "Georgetown (Guyana)": {"name": "Georgetown (Guyana)", "latitude": 6.800923, "longitude": -58.155654, "population": 135, "connections": ["Kigali", "Edmonton", "\u5317\u4eac\u5e02"], "economy": "+", "government": "o", "hygiene": "+", "awareness": "o"}, "G\u00f6teborg": {"name": "G\u00f6teborg", "latitude": 57.813938, "longitude": 11.965736, "population": 573, "connections": ["Ankara", "\u0915\u093e\u0920\u092e\u093e\u0921\u094c\u0901", "Bissau"], "economy": "+", "government": "++", "hygiene": "++", "awareness": "++"}, "Hamburg": {"name": "Hamburg", "latitude": 53.54845, "longitude": 9.978514, "population": 1822, "connections": ["\u6fb3\u9580", "Wien", "Boston", "Kinshasa", "Luanda"], "economy": "++", "government": "+", "hygiene": "+", "awareness": "+"}, "Harare": {"name": "Harare", "latitude": -17.825123, "longitude": 31.03145, "population": 1485, "connections": ["Helsinki", "Windhoek", "New York City", "Phoenix", "San Jos\u00e9"], "economy": "o", "government": "-", "hygiene": "o", "awareness": "-"}, "Helsinki": {"name": "Helsinki", "latitude": 60.167987, "longitude": 24.941757, "population": 632, "connections": ["Harare", "Kampala", "\u0637\u0631\u0627\u0628\u0644\u0633"], "economy": "++", "government": "+", "hygiene": "++", "awareness": "+"}, "Honolulu": {"name": "Honolulu", "latitude": 21.305311, "longitude": -157.857097, "population": 993, "connections": ["Miami", "\u0421\u0430\u043d\u043a\u0442-\u041f\u0435\u0442\u0435\u0440\u0431\u0443\u0440\u0433", "Sydney"], "economy": "++", "government": "++", "hygiene": "++", "awareness": "++"}, "Houston": {"name": "Houston", "latitude": 29.763251, "longitude": -95.387592, "population": 6773, "connections": ["\u0628\u063a\u062f\u0627\u062f", "\u0b9a\u0bbf\u0b99\u0bcd\u0b95\u0baa\u0bcd\u0baa\u0bc2\u0bb0\u0bcd \u0b95\u0bc1\u0b9f\u0bbf\u0baf\u0bb0\u0b9a\u0bc1", "\u0627\u0644\u0631\u064a\u0627\u0636", "Buenos Aires", "\u5317\u4eac\u5e02", "Luanda", "\u041f\u043e\u0434\u0433\u043e\u0440\u0438\u0446\u0430", "\u91cd\u5e86\u5e02", "Yamoussoukro"], "economy": "o", "government": "+", "hygiene": "o", "awareness": "o"}, "H\u00e0 N\u1ed9i": {"name": "H\u00e0 N\u1ed9i", "latitude": 21.027946, "longitude": 105.834989, "population": 6449, "connections": ["Libreville", "Bogot\u00e1", "\u0928\u0908 \u0926\u093f\u0932\u094d\u0932\u0940", "\u0628\u063a\u062f\u0627\u062f", "El Paso", "\u957f\u6625\u5e02", "Caracas", "\u0637\u0631\u0627\u0628\u0644\u0633"], "economy": "o", "government": "+", "hygiene": "o", "awareness": "+"}, "Jakarta": {"name": "Jakarta", "latitude": -6.207899, "longitude": 106.843249, "population": 29960, "connections": ["Tijuana", "Nantes", "K\u00f8benhavn", "\u6771\u4eac", "\u6210\u90fd\u5e02", "\u062a\u0647\u0631\u0627\u0646", "\u0e01\u0e23\u0e38\u0e07\u0e40\u0e17\u0e1e\u0e21\u0e2b\u0e32\u0e19\u0e04\u0e23", "\u9999\u6e2f", "Milano", "Los Angeles"], "economy": "+", "government": "o", "hygiene": "+", "awareness": "o"}, "Juba": {"name": "Juba", "latitude": 4.859835, "longitude": 31.571876, "population": 500, "connections": ["Melbourne", "Edmonton", "\u0637\u0631\u0627\u0628\u0644\u0633", "Denver"], "economy": "o", "government": "o", "hygiene": "o", "awareness": "o"}, "Kampala": {"name": "Kampala", "latitude": 0.347361, "longitude": 32.578524, "population": 1507, "connections": ["\u4e4c\u9c81\u6728\u9f50\u5e02", "Gda\u0144sk", "Helsinki", "\u0421\u043e\u0444\u0438\u044f", "\u041c\u043e\u0441\u043a\u0432\u0430"], "economy": "o", "government": "-", "hygiene": "o", "awareness": "o"}, "Kansas City": {"name": "Kansas City", "latitude": 39.093715, "longitude": -94.574376, "population": 2105, "connections": ["Tijuana", "Perth", "Bucure\u0219ti", "Manaus", "\u0535\u0580\u0587\u0561\u0576", "Lisboa", "Nassau"], "economy": "+", "government": "+", "hygiene": "+", "awareness": "+"}, "Kigali": {"name": "Kigali", "latitude": -1.970411, "longitude": 30.103516, "population": 1169, "connections": ["\u53a6\u95e8\u5e02", "Georgetown (Guyana)", "\u0e01\u0e23\u0e38\u0e07\u0e40\u0e17\u0e1e\u0e21\u0e2b\u0e32\u0e19\u0e04\u0e23", "Ciudad de M\u00e9xico", "\u6606\u660e\u5e02"], "economy": "-", "government": "--", "hygiene": "-", "awareness": "-"}, "Kingston": {"name": "Kingston", "latitude": 18.017443, "longitude": -76.811815, "population": 649, "connections": ["\u10d7\u10d1\u10d8\u10da\u10d8\u10e1\u10d8", "La Habana", "Bucure\u0219ti"], "economy": "+", "government": "o", "hygiene": "+", "awareness": "++"}, "Kinshasa": {"name": "Kinshasa", "latitude": -4.439981, "longitude": 15.266437, "population": 11860, "connections": ["\u042f\u043a\u0443\u0442\u0441\u043a", "Ankara", "Tijuana", "\u0646\u0648\u0627\u0643\u0634\u0648\u0637", "Hamburg", "\u041c\u043e\u0441\u043a\u0432\u0430", "Washington, D.C.", "\u0643\u0648\u0627\u0644\u0627 \u0644\u0648\u0645\u06a4\u0648\u0631"], "economy": "-", "government": "-", "hygiene": "-", "awareness": "-"}, "K\u00f6ln": {"name": "K\u00f6ln", "latitude": 50.941441, "longitude": 6.958324, "population": 1085, "connections": ["\u0421\u0430\u043d\u043a\u0442-\u041f\u0435\u0442\u0435\u0440\u0431\u0443\u0440\u0433", "\u0635\u0646\u0639\u0627\u0621\u200e", "Miami", "Quito", "\u0f50\u0f72\u0f58\u0f0b\u0f55\u0f74\u0f0b"], "economy": "+", "government": "+", "hygiene": "+", "awareness": "+"}, "K\u00f8benhavn": {"name": "K\u00f8benhavn", "latitude": 55.675313, "longitude": 12.572536, "population": 623, "connections": ["\u4e4c\u9c81\u6728\u9f50\u5e02", "Bogot\u00e1", "\u5317\u4eac\u5e02", "Jakarta"], "economy": "+", "government": "++", "hygiene": "+", "awareness": "+"}, "La Habana": {"name": "La Habana", "latitude": 23.112576, "longitude": -82.366307, "population": 2122, "connections": ["Bamako", "\u0628\u063a\u062f\u0627\u062f", "Anchorage", "San Juan", "Kingston", "Denver"], "economy": "o", "government": "o", "hygiene": "+", "awareness": "o"}, "La Paz": {"name": "La Paz", "latitude": -16.490746, "longitude": -68.11687, "population": 757, "connections": ["Niamey", "Budapest"], "economy": "o", "government": "o", "hygiene": "o", "awareness": "o"}, "Las Vegas": {"name": "Las Vegas", "latitude": 36.171493, "longitude": -115.137929, "population": 642, "connections": ["Oulu", "\u041d\u043e\u0432\u043e\u0441\u0438\u0431\u0438\u0440\u0441\u043a", "Ciudad de Guatemala", "\u53f0\u5317", "Cleveland"], "economy": "++", "government": "o", "hygiene": "++", "awareness": "+"}, "Libreville": {"name": "Libreville", "latitude": 0.421112, "longitude": 9.467307, "population": 704, "connections": ["\u957f\u6625\u5e02", "Ciudad de M\u00e9xico", "Abuja", "Rio de Janeiro", "H\u00e0 N\u1ed9i"], "economy": "o", "government": "-", "hygiene": "-", "awareness": "-"}, "Lilongwe": {"name": "Lilongwe", "latitude": -13.966186, "longitude": 33.769217, "population": 986, "connections": ["Port-au-Prince", "Anchorage"], "economy": "o", "government": "o", "hygiene": "-", "awareness": "o"}, "Lima": {"name": "Lima", "latitude": -12.045764, "longitude": -77.052347, "population": 10480, "connections": ["\u041c\u0456\u043d\u0441\u043a", "Tirana", "Ciudad de Panam\u00e1", "\u4e34\u6c82\u5e02", "Ciudad de M\u00e9xico", "\u9999\u6e2f", "Buenos Aires", "Bogot\u00e1", "London"], "economy": "o", "government": "o", "hygiene": "o", "awareness": "o"}, "Lisboa": {"name": "Lisboa", "latitude": 38.722732, "longitude": -9.140634, "population": 505, "connections": ["Caracas", "Kansas City", "Montevideo"], "economy": "+", "government": "+", "hygiene": "o", "awareness": "+"}, "Ljubljana": {"name": "Ljubljana", "latitude": 46.056805, "longitude": 14.502228, "population": 280, "connections": ["\u0628\u064a\u0631\u0648\u062a", "\u0643\u0648\u0627\u0644\u0627 \u0644\u0648\u0645\u06a4\u0648\u0631", "\u957f\u6625\u5e02", "\u0645\u062f\u064a\u0646\u0629 \u0627\u0644\u062c\u0632\u0627\u0626\u0631"], "events": [{"type": "outbreak", "pathogen": {"name": "\u03a6thisis", "infectivity": "o", "mobility": "o", "duration": "o", "lethality": "o"}, "prevalence": 0.29642857142857143, "sinceRound": 1}], "economy": "o", "government": "o", "hygiene": "o", "awareness": "o"}, "Lom\u00e9": {"name": "Lom\u00e9", "latitude": 6.127019, "longitude": 1.228492, "population": 840, "connections": ["\u0414\u043e\u043d\u0435\u0446\u044c\u043a", "Sevilla", "\u0627\u0644\u062f\u0648\u062d\u0629"], "economy": "o", "government": "-", "hygiene": "-", "awareness": "o"}, "London": {"name": "London", "latitude": 51.507194, "longitude": -0.127526, "population": 8136, "connections": ["Miami", "\u6606\u660e\u5e02", "Atlanta", "Lima", "Paris", "Stockholm", "Gda\u0144sk", "Conakry"], "economy": "+", "government": "+", "hygiene": "++", "awareness": "++"}, "Los Angeles": {"name": "Los Angeles", "latitude": 34.062266, "longitude": -118.270315, "population": 13311, "connections": ["Santiago de Chile", "Monrovia", "Vancouver", "Jakarta", "Bujumbura", "\u957f\u6625\u5e02", "\u4e0a\u6d77\u5e02", "\u092e\u0941\u0902\u092c\u0908", "New York City", "Paramaribo"], "economy": "++", "government": "+", "hygiene": "+", "awareness": "+"}, "Luanda": {"name": "Luanda", "latitude": -8.816887, "longitude": 13.232604, "population": 2572, "connections": ["Hamburg", "Chicago", "\u0643\u0648\u0627\u0644\u0627 \u0644\u0648\u0645\u06a4\u0648\u0631", "Berlin", "Houston", "Atlanta"], "economy": "-", "government": "o", "hygiene": "o", "awareness": "o"}, "Lungsod ng Maynila": {"name": "Lungsod ng Maynila", "latitude": 14.598489, "longitude": 120.985396, "population": 1780, "connections": ["Gda\u0144sk", "San Francisco", "\u5e83\u5cf6\u5e02", "Melbourne", "Nassau"], "economy": "+", "government": "o", "hygiene": "+", "awareness": "o"}, "Lusaka": {"name": "Lusaka", "latitude": -15.385705, "longitude": 28.320748, "population": 2406, "connections": ["Montevideo", "Yamoussoukro", "\u0915\u093e\u0920\u092e\u093e\u0921\u094c\u0901", "\u041c\u0443\u0440\u043c\u0430\u043d\u0441\u043a", "Niamey", "Monrovia"], "economy": "o", "government": "-", "hygiene": "-", "awareness": "-"}, "L\u00ebtzebuerg": {"name": "L\u00ebtzebuerg", "latitude": 49.611827, "longitude": 6.130033, "population": 116, "connections": ["\u0627\u0644\u0631\u0650\u0651\u0628\u064e\u0627\u0637\u200e", "Bras\u00edlia"], "economy": "+", "government": "o", "hygiene": "o", "awareness": "+"}, "Madrid": {"name": "Madrid", "latitude": 40.413302, "longitude": -3.70289, "population": 3174, "connections": ["Boston", "Quito", "Accra", "Yamoussoukro", "\u041d\u043e\u0432\u043e\u0441\u0438\u0431\u0438\u0440\u0441\u043a", "\u53f0\u5317", "Charlotte", "A\u015fgabat"], "economy": "+", "government": "+", "hygiene": "++", "awareness": "+"}, "Malabo": {"name": "Malabo", "latitude": 3.756131, "longitude": 8.785107, "population": 297, "connections": ["\u0627\u0633\u0644\u0627\u0645 \u0622\u0628\u0627\u062f", "Bucure\u0219ti"], "economy": "-", "government": "o", "hygiene": "o", "awareness": "o"}, "Managua": {"name": "Managua", "latitude": 12.113763, "longitude": -86.23752, "population": 1034, "connections": ["Tegucigalpa", "\u0f50\u0f72\u0f58\u0f0b\u0f55\u0f74\u0f0b", "Sevilla", "Ciudad de Guatemala", "Barcelona"], "economy": "o", "government": "+", "hygiene": "o", "awareness": "+"}, "Manaus": {"name": "Manaus", "latitude": -3.11871, "longitude": -60.014828, "population": 1793, "connections": ["Detroit", "\u91cd\u5e86\u5e02", "\u0627\u0644\u0645\u0646\u0627\u0645\u0629", "Kansas City", "Cincinnati"], "economy": "o", "government": "o", "hygiene": "o", "awareness": "o"}, "Maputo": {"name": "Maputo", "latitude": -25.968124, "longitude": 32.572927, "population": 1101, "connections": ["\u0643\u0648\u0627\u0644\u0627 \u0644\u0648\u0645\u06a4\u0648\u0631", "\u0646\u0648\u0627\u0643\u0634\u0648\u0637", "Perth", "\u10d7\u10d1\u10d8\u10da\u10d8\u10e1\u10d8", "\u0421\u0430\u0440\u0430\u0458\u0435\u0432\u043e"], "economy": "-", "government": "o", "hygiene": "--", "awareness": "o"}, "Maseru": {"name": "Maseru", "latitude": -29.315503, "longitude": 27.485807, "population": 331, "connections": ["\u0421\u043a\u043e\u043f\u0458\u0435", "\u042f\u043a\u0443\u0442\u0441\u043a"], "economy": "o", "government": "o", "hygiene": "o", "awareness": "o"}, "Mbabane": {"name": "Mbabane", "latitude": -26.305508, "longitude": 31.135811, "population": 95, "connections": [], "economy": "o", "government": "o", "hygiene": "o", "awareness": "o"}, "Melbourne": {"name": "Melbourne", "latitude": -37.807498, "longitude": 144.972085, "population": 4936, "connections": ["Cincinnati", "Dodoma", "Lungsod ng Maynila", "Abuja", "Riga", "\u4e4c\u9c81\u6728\u9f50\u5e02", "Juba"], "economy": "+", "government": "+", "hygiene": "++", "awareness": "+"}, "Miami": {"name": "Miami", "latitude": 25.760749, "longitude": -80.194785, "population": 5565, "connections": ["K\u00f6ln", "\u0635\u0646\u0639\u0627\u0621\u200e", "Honolulu", "Santiago de Chile", "Pittsburgh", "London", "\u897f\u5b89\u5e02", "\u91cd\u5e86\u5e02"], "economy": "o", "government": "+", "hygiene": "+", "awareness": "+"}, "Milano": {"name": "Milano", "latitude": 45.46488, "longitude": 9.19009, "population": 1352, "connections": ["Jakarta", "Santo Domingo", "\u06a9\u0627\u0628\u0644", "Reykjav\u00edk", "Toronto"], "economy": "+", "government": "++", "hygiene": "o", "awareness": "+"}, "Milwaukee": {"name": "Milwaukee", "latitude": 43.038236, "longitude": -87.908386, "population": 1573, "connections": ["\u041f\u0435\u0440\u043c\u044c", "Montreal", "Bruxelles", "Budapest", "\u041d\u043e\u0432\u043e\u0441\u0438\u0431\u0438\u0440\u0441\u043a"], "economy": "+", "government": "+", "hygiene": "+", "awareness": "+"}, "Minneapolis": {"name": "Minneapolis", "latitude": 44.975776, "longitude": -93.269377, "population": 422, "connections": ["\u06a9\u0627\u0628\u0644", "Berlin", "\u0627\u0650\u0646\u0652\u062c\u064e\u0645\u0650\u064a\u0646\u064e\u0627"], "economy": "+", "government": "o", "hygiene": "o", "awareness": "o"}, "Monaco": {"name": "Monaco", "latitude": 43.74073, "longitude": 7.426154, "population": 38, "connections": [], "events": [{"type": "outbreak", "pathogen": {"name": "Plorps", "infectivity": "o", "mobility": "o", "duration": "+", "lethality": "-"}, "prevalence": 0.42105263157894735, "sinceRound": 1}], "economy": "+", "government": "+", "hygiene": "+", "awareness": "++"}, "Monrovia": {"name": "Monrovia", "latitude": 6.315329, "longitude": -10.80607, "population": 1011, "connections": ["Lusaka", "\u6b66\u6c49\u5e02", "\u0628\u064a\u0631\u0648\u062a", "Edmonton", "Los Angeles"], "economy": "-", "government": "o", "hygiene": "o", "awareness": "o"}, "Montevideo": {"name": "Montevideo", "latitude": -34.901084, "longitude": -56.165716, "population": 1381, "connections": ["\u5317\u4eac\u5e02", "Dodoma", "Lusaka", "Lisboa", "Amsterdam"], "economy": "o", "government": "o", "hygiene": "+", "awareness": "+"}, "Montreal": {"name": "Montreal", "latitude": 45.499271, "longitude": -73.568261, "population": 1780, "connections": ["\u042f\u043a\u0443\u0442\u0441\u043a", "Christchurch", "Dodoma", "\u0639\u0645\u0627\u0646", "Bak\u0131", "Milwaukee"], "economy": "++", "government": "+", "hygiene": "+", "awareness": "++"}, "M\u00fcnchen": {"name": "M\u00fcnchen", "latitude": 48.137687, "longitude": 11.579932, "population": 1451, "connections": ["Sevilla", "Austin", "\u957f\u6625\u5e02", "New York City", "Sydney"], "economy": "++", "government": "++", "hygiene": "o", "awareness": "+"}, "Nairobi": {"name": "Nairobi", "latitude": -1.293254, "longitude": 36.816152, "population": 3134, "connections": ["\u041f\u0435\u0440\u043c\u044c", "\u0645\u062f\u064a\u0646\u0629 \u0627\u0644\u062c\u0632\u0627\u0626\u0631", "\u0627\u0644\u062e\u0631\u0637\u0648\u0645", "Gda\u0144sk", "\u092e\u0941\u0902\u092c\u0908"], "economy": "-", "government": "o", "hygiene": "o", "awareness": "o"}, "Nantes": {"name": "Nantes", "latitude": 47.220016, "longitude": -1.552848, "population": 545, "connections": ["\u0645\u0633\u0642\u0637", "Brisbane", "Charlotte", "Jakarta"], "economy": "+", "government": "+", "hygiene": "o", "awareness": "+"}, "Nashville": {"name": "Nashville", "latitude": 36.166051, "longitude": -86.778387, "population": 1667, "connections": ["Warszawa", "\u0ea7\u0ebd\u0e87\u0e88\u0eb1\u0e99", "Ciudad de Panam\u00e1", "Ouagadougou", "\u0627\u0644\u062e\u0631\u0637\u0648\u0645"], "economy": "+", "government": "+", "hygiene": "o", "awareness": "o"}, "Nassau": {"name": "Nassau", "latitude": 25.044986, "longitude": -77.353194, "population": 266, "connections": ["Lungsod ng Maynila", "\u4e0a\u6d77\u5e02", "\ud3c9\uc591", "\u1014\u1031\u1015\u103c\u100a\u103a\u1010\u1031\u102c\u103a", "Kansas City"], "economy": "+", "government": "+", "hygiene": "+", "awareness": "o"}, "New Orleans": {"name": "New Orleans", "latitude": 29.950854, "longitude": -90.074832, "population": 1269, "connections": ["Brisbane", "Winnipeg", "\u6771\u4eac", "Atlanta", "\u12a0\u12f2\u1235 \u12a0\u1260\u1263"], "economy": "+", "government": "+", "hygiene": "+", "awareness": "+"}, "New York City": {"name": "New York City", "latitude": 40.71354, "longitude": -74.04286, "population": 8623, "connections": ["Bujumbura", "Los Angeles", "Rio de Janeiro", "\u0928\u0908 \u0926\u093f\u0932\u094d\u0932\u0940", "Pot Mosbi", "M\u00fcnchen", "Harare", "\u4e34\u6c82\u5e02"], "economy": "o", "government": "o", "hygiene": "o", "awareness": "o"}, "Niamey": {"name": "Niamey", "latitude": 13.51043, "longitude": 2.125212, "population": 1027, "connections": ["\u0f50\u0f72\u0f58\u0f0b\u0f55\u0f74\u0f0b", "\u0421\u0430\u043d\u043a\u0442-\u041f\u0435\u0442\u0435\u0440\u0431\u0443\u0440\u0433", "La Paz", "San Francisco", "Lusaka"], "economy": "o", "government": "o", "hygiene": "o", "awareness": "o"}, "Nuuk": {"name": "Nuuk", "latitude": 64.181196, "longitude": -51.694279, "population": 18, "connections": [], "economy": "+", "government": "+", "hygiene": "+", "awareness": "++"}, "Oslo": {"name": "Oslo", "latitude": 59.912831, "longitude": 10.731481, "population": 634, "connections": ["Austin", "\u897f\u5b89\u5e02", "\u0421\u0430\u043d\u043a\u0442-\u041f\u0435\u0442\u0435\u0440\u0431\u0443\u0440\u0433", "\u0b9a\u0bbf\u0b99\u0bcd\u0b95\u0baa\u0bcd\u0baa\u0bc2\u0bb0\u0bcd \u0b95\u0bc1\u0b9f\u0bbf\u0baf\u0bb0\u0b9a\u0bc1"], "economy": "++", "government": "++", "hygiene": "++", "awareness": "+"}, "Ottawa": {"name": "Ottawa", "latitude": 45.423575, "longitude": -75.70278, "population": 1236, "connections": ["Ciudad de Guatemala", "San Salvador", "\u0535\u0580\u0587\u0561\u0576", "Wien", "\u0623\u0633\u0645\u0631\u0629"], "economy": "++", "government": "+", "hygiene": "+", "awareness": "+"}, "Ouagadougou": {"name": "Ouagadougou", "latitude": 12.368182, "longitude": -1.518315, "population": 2200, "connections": ["Toronto", "\u0421\u0430\u043d\u043a\u0442-\u041f\u0435\u0442\u0435\u0440\u0431\u0443\u0440\u0433", "Christchurch", "Nashville", "Albuquerque", "\u0645\u062f\u064a\u0646\u0629 \u0627\u0644\u062c\u0632\u0627\u0626\u0631"], "economy": "-", "government": "-", "hygiene": "-", "awareness": "o"}, "Oulu": {"name": "Oulu", "latitude": 65.044998, "longitude": 25.459239, "population": 200, "connections": ["Las Vegas", "Brisbane"], "economy": "++", "government": "+", "hygiene": "++", "awareness": "++"}, "Paramaribo": {"name": "Paramaribo", "latitude": 5.85191, "longitude": -55.202738, "population": 241, "connections": ["Los Angeles", "\u0627\u0644\u062e\u0631\u0637\u0648\u0645"], "economy": "o", "government": "o", "hygiene": "o", "awareness": "o"}, "Paris": {"name": "Paris", "latitude": 48.856579, "longitude": 2.351178, "population": 2141, "connections": ["Dublin", "London", "Barcelona", "Reykjav\u00edk", "Washington, D.C."], "economy": "++", "government": "+", "hygiene": "++", "awareness": "++"}, "Perth": {"name": "Perth", "latitude": -31.945414, "longitude": 115.857137, "population": 1985, "connections": ["San Francisco", "\u0ea7\u0ebd\u0e87\u0e88\u0eb1\u0e99", "Portland", "Toronto", "Maputo", "Kansas City"], "economy": "++", "government": "++", "hygiene": "++", "awareness": "+"}, "Philadelphia": {"name": "Philadelphia", "latitude": 39.949795, "longitude": -75.166792, "population": 1581, "connections": ["San Francisco", "Barcelona", "\u0b9a\u0bbf\u0b99\u0bcd\u0b95\u0baa\u0bcd\u0baa\u0bc2\u0bb0\u0bcd \u0b95\u0bc1\u0b9f\u0bbf\u0baf\u0bb0\u0b9a\u0bc1", "Prishtin\u00eb", "Bujumbura"], "events": [{"type": "outbreak", "pathogen": {"name": "N5-10", "infectivity": "+", "mobility": "++", "duration": "o", "lethality": "+"}, "prevalence": 0.5420619860847565, "sinceRound": 1}], "economy": "+", "government": "o", "hygiene": "o", "awareness": "+"}, "Phoenix": {"name": "Phoenix", "latitude": 33.451697, "longitude": -112.074271, "population": 4662, "connections": ["\u041c\u0456\u043d\u0441\u043a", "Harare", "Bloemfontein", "\u0623\u0628\u0648 \u0638\u0628\u064a", "\u0422\u043e\u0448\u043a\u0435\u043d\u0442", "Strasbourg", "Bak\u0131", "\u0627\u0633\u0644\u0627\u0645 \u0622\u0628\u0627\u062f"], "economy": "o", "government": "+", "hygiene": "+", "awareness": "++"}, "Pittsburgh": {"name": "Pittsburgh", "latitude": 40.441277, "longitude": -79.998355, "population": 302, "connections": ["Conakry", "Miami", "Chi\u0219in\u0103u", "San Jos\u00e9"], "economy": "+", "government": "+", "hygiene": "+", "awareness": "o"}, "Port of Spain": {"name": "Port of Spain", "latitude": 10.650241, "longitude": -61.513524, "population": 37, "connections": [], "economy": "++", "government": "+", "hygiene": "++", "awareness": "+"}, "Port-au-Prince": {"name": "Port-au-Prince", "latitude": 18.59497, "longitude": -72.300942, "population": 1275, "connections": ["\u4e0a\u6d77\u5e02", "\ud3c9\uc591", "\u0627\u0644\u0639\u064a\u0648\u0646", "Lilongwe", "\u179a\u17b6\u1787\u1792\u17b6\u1793\u17b8\u200b\u1797\u17d2\u1793\u17c6\u1796\u17c1\u1789"], "economy": "-", "government": "o", "hygiene": "o", "awareness": "o"}, "Portland": {"name": "Portland", "latitude": 45.501254, "longitude": -122.67562, "population": 648, "connections": ["\u0627\u0644\u0631\u064a\u0627\u0636", "\u0411\u0435\u043e\u0433\u0440\u0430\u0434", "Perth"], "economy": "+", "government": "+", "hygiene": "++", "awareness": "++"}, "Porto Alegre": {"name": "Porto Alegre", "latitude": -30.033329, "longitude": -51.219721, "population": 1409, "connections": ["Warszawa", "Bergen", "\u0627\u0644\u0639\u064a\u0648\u0646", "San Francisco", "\u53f0\u5317"], "economy": "o", "government": "o", "hygiene": "o", "awareness": "o"}, "Porto-Novo": {"name": "Porto-Novo", "latitude": 6.497144, "longitude": 2.628993, "population": 264, "connections": ["\u4e34\u6c82\u5e02", "Yamoussoukro"], "economy": "o", "government": "o", "hygiene": "-", "awareness": "o"}, "Pot Mosbi": {"name": "Pot Mosbi", "latitude": -9.443109, "longitude": 147.179444, "population": 364, "connections": ["New York City", "\u897f\u5b89\u5e02", "Wien"], "economy": "++", "government": "o", "hygiene": "+", "awareness": "o"}, "Praha": {"name": "Praha", "latitude": 50.07369, "longitude": 14.441585, "population": 1281, "connections": ["Freetown", "\u0646\u0648\u0627\u0643\u0634\u0648\u0637", "Seattle", "Wien", "Bergen"], "economy": "+", "government": "+", "hygiene": "++", "awareness": "+"}, "Pretoria": {"name": "Pretoria", "latitude": -25.745595, "longitude": 28.232962, "population": 742, "connections": ["\u041a\u0438\u0457\u0432", "\u062f\u0645\u0634\u0642", "Bamako"], "economy": "o", "government": "o", "hygiene": "o", "awareness": "o"}, "Prishtin\u00eb": {"name": "Prishtin\u00eb", "latitude": 42.663976, "longitude": 21.16422, "population": 145, "connections": ["\u91cd\u5e86\u5e02", "Cincinnati", "\u0928\u0908 \u0926\u093f\u0932\u094d\u0932\u0940", "Philadelphia"], "economy": "o", "government": "o", "hygiene": "o", "awareness": "o"}, "Quito": {"name": "Quito", "latitude": -0.178354, "longitude": -78.463506, "population": 1619, "connections": ["Madrid", "Gaborone", "\u041d\u04b1\u0440-\u0421\u04b1\u043b\u0442\u0430\u043d", "\u0627\u0644\u0631\u0650\u0651\u0628\u064e\u0627\u0637\u200e", "\u91cd\u5e86\u5e02", "K\u00f6ln"], "economy": "o", "government": "o", "hygiene": "o", "awareness": "o"}, "Recife": {"name": "Recife", "latitude": -8.058263, "longitude": -34.884437, "population": 1555, "connections": ["Antananarivo", "Washington, D.C.", "\ud3c9\uc591", "Christchurch", "Belfast"], "economy": "o", "government": "o", "hygiene": "o", "awareness": "+"}, "Reykjav\u00edk": {"name": "Reykjav\u00edk", "latitude": 64.146053, "longitude": -21.942394, "population": 123, "connections": ["Antananarivo", "Paris", "\u041c\u043e\u0441\u043a\u0432\u0430", "\u6771\u4eac", "Milano"], "economy": "+", "government": "++", "hygiene": "+", "awareness": "++"}, "Riga": {"name": "Riga", "latitude": 56.949308, "longitude": 24.107184, "population": 641, "connections": ["Melbourne", "Edinburgh", "Santo Domingo"], "economy": "+", "government": "+", "hygiene": "++", "awareness": "+"}, "Rio de Janeiro": {"name": "Rio de Janeiro", "latitude": -22.90901, "longitude": -43.194678, "population": 6320, "connections": ["Bogot\u00e1", "\u041d\u04b1\u0440-\u0421\u04b1\u043b\u0442\u0430\u043d", "New York City", "Amsterdam", "\u6210\u90fd\u5e02", "\u062a\u0647\u0631\u0627\u0646", "Brazzaville", "Libreville"], "economy": "o", "government": "o", "hygiene": "o", "awareness": "o"}, "Roma": {"name": "Roma", "latitude": 41.902337, "longitude": 12.453997, "population": 2872, "connections": ["Bloemfontein", "\u0637\u0631\u0627\u0628\u0644\u0633", "\u062a\u0647\u0631\u0627\u0646", "Winnipeg", "\u6b66\u6c49\u5e02", "Abuja"], "economy": "o", "government": "o", "hygiene": "o", "awareness": "+"}, "Salt Lake City": {"name": "Salt Lake City", "latitude": 40.762026, "longitude": -111.895081, "population": 201, "connections": ["\u041c\u0456\u043d\u0441\u043a", "\u039b\u03b5\u03c5\u03ba\u03c9\u03c3\u03af\u03b1", "\u53a6\u95e8\u5e02", "Toulouse"], "economy": "o", "government": "+", "hygiene": "+", "awareness": "+"}, "San Francisco": {"name": "San Francisco", "latitude": 37.772894, "longitude": -122.425584, "population": 4679, "connections": ["Porto Alegre", "Niamey", "Perth", "Belfast", "San Juan", "Lungsod ng Maynila", "Chi\u0219in\u0103u", "Philadelphia"], "economy": "o", "government": "+", "hygiene": "+", "awareness": "+"}, "San Jos\u00e9": {"name": "San Jos\u00e9", "latitude": 9.929356, "longitude": -84.090858, "population": 1979, "connections": ["Toronto", "Amsterdam", "\u0623\u0628\u0648 \u0638\u0628\u064a", "Pittsburgh", "Harare", "A\u015fgabat"], "economy": "o", "government": "o", "hygiene": "+", "awareness": "o"}, "San Juan": {"name": "San Juan", "latitude": 18.46414, "longitude": -66.10133, "population": 2509, "connections": ["Brisbane", "La Habana", "Bloemfontein", "Accra", "Dublin", "San Francisco"], "economy": "o", "government": "o", "hygiene": "+", "awareness": "o"}, "San Salvador": {"name": "San Salvador", "latitude": 13.695812, "longitude": -89.217141, "population": 238, "connections": ["Ottawa", "Bissau"], "economy": "o", "government": "o", "hygiene": "+", "awareness": "o"}, "Santiago de Chile": {"name": "Santiago de Chile", "latitude": -33.454952, "longitude": -70.675157, "population": 5614, "connections": ["Belfast", "\u6b66\u6c49\u5e02", "\u0645\u062f\u064a\u0646\u0629 \u0627\u0644\u062c\u0632\u0627\u0626\u0631", "Miami", "Edmonton", "Los Angeles", "\u0627\u0644\u0639\u064a\u0648\u0646", "Bogot\u00e1"], "economy": "o", "government": "+", "hygiene": "+", "awareness": "+"}, "Santo Domingo": {"name": "Santo Domingo", "latitude": 18.484924, "longitude": -69.931906, "population": 965, "connections": ["Milano", "Riga", "Yaound\u00e9"], "economy": "+", "government": "o", "hygiene": "o", "awareness": "+"}, "Seattle": {"name": "Seattle", "latitude": 47.602296, "longitude": -122.340698, "population": 3799, "connections": ["Praha", "\ud3c9\uc591", "Asunci\u00f3n", "Brazzaville", "\u06a9\u0627\u0628\u0644", "\u6fb3\u9580"], "economy": "++", "government": "+", "hygiene": "+", "awareness": "++"}, "Sevilla": {"name": "Sevilla", "latitude": 37.389006, "longitude": -5.984241, "population": 690, "connections": ["M\u00fcnchen", "Berlin", "Managua", "\u092e\u0941\u0902\u092c\u0908", "Lom\u00e9"], "economy": "++", "government": "+", "hygiene": "o", "awareness": "+"}, "Springfield (Missouri)": {"name": "Springfield (Missouri)", "latitude": 39.783079, "longitude": -89.65092, "population": 459, "connections": ["Windhoek", "Winnipeg"], "economy": "++", "government": "+", "hygiene": "++", "awareness": "+"}, "Stockholm": {"name": "Stockholm", "latitude": 59.333422, "longitude": 18.067878, "population": 965, "connections": ["London", "\u0422\u043e\u0448\u043a\u0435\u043d\u0442", "Barcelona", "\u4e4c\u9c81\u6728\u9f50\u5e02"], "economy": "+", "government": "++", "hygiene": "++", "awareness": "++"}, "Strasbourg": {"name": "Strasbourg", "latitude": 48.575226, "longitude": 7.756599, "population": 277, "connections": ["Windhoek", "Phoenix"], "economy": "o", "government": "++", "hygiene": "o", "awareness": "++"}, "Sydney": {"name": "Sydney", "latitude": -33.870735, "longitude": 151.194245, "population": 4627, "connections": ["\u0627\u0633\u0644\u0627\u0645 \u0622\u0628\u0627\u062f", "M\u00fcnchen", "Honolulu", "Gda\u0144sk", "Ankara"], "economy": "+", "government": "++", "hygiene": "+", "awareness": "++"}, "Tallinn": {"name": "Tallinn", "latitude": 59.436721, "longitude": 24.751283, "population": 427, "connections": ["Charlotte", "\u179a\u17b6\u1787\u1792\u17b6\u1793\u17b8\u200b\u1797\u17d2\u1793\u17c6\u1796\u17c1\u1789"], "economy": "+", "government": "o", "hygiene": "+", "awareness": "o"}, "Tegucigalpa": {"name": "Tegucigalpa", "latitude": 14.063599, "longitude": -87.172358, "population": 1158, "connections": ["\u897f\u5b89\u5e02", "Detroit", "\u0391\u03b8\u03ae\u03bd\u03b1", "Amsterdam", "Managua"], "economy": "o", "government": "+", "hygiene": "o", "awareness": "o"}, "Tijuana": {"name": "Tijuana", "latitude": 32.513244, "longitude": -117.039476, "population": 1301, "connections": ["Antananarivo", "Kansas City", "Jakarta", "Kinshasa", "Dodoma"], "economy": "o", "government": "o", "hygiene": "-", "awareness": "-"}, "Tirana": {"name": "Tirana", "latitude": 41.327368, "longitude": 19.816449, "population": 419, "connections": ["\u91cd\u5e86\u5e02", "Lima", "\u6210\u90fd\u5e02", "\u062a\u0647\u0631\u0627\u0646"], "economy": "o", "government": "o", "hygiene": "o", "awareness": "o"}, "Tolhuin": {"name": "Tolhuin", "latitude": -54.510552, "longitude": -67.193003, "population": 3, "connections": [], "economy": "o", "government": "o", "hygiene": "+", "awareness": "o"}, "Toronto": {"name": "Toronto", "latitude": 43.667018, "longitude": -79.428191, "population": 2930, "connections": ["Milano", "Austin", "Winnipeg", "San Jos\u00e9", "Wien", "\u0628\u064a\u0631\u0648\u062a", "Wellington", "Perth", "Ouagadougou"], "economy": "++", "government": "+", "hygiene": "+", "awareness": "+"}, "Toulouse": {"name": "Toulouse", "latitude": 43.603413, "longitude": 1.442796, "population": 1292, "connections": ["Anchorage", "Salt Lake City", "Denver", "\uc11c\uc6b8\ud2b9\ubcc4\uc2dc", "\u0421\u0430\u043d\u043a\u0442-\u041f\u0435\u0442\u0435\u0440\u0431\u0443\u0440\u0433"], "economy": "o", "government": "+", "hygiene": "+", "awareness": "+"}, "Troms\u00f8": {"name": "Troms\u00f8", "latitude": 69.650793, "longitude": 18.955514, "population": 72, "connections": [], "economy": "+", "government": "+", "hygiene": "++", "awareness": "+"}, "T\u00f3rshavn": {"name": "T\u00f3rshavn", "latitude": 62.010684, "longitude": -6.775507, "population": 13, "connections": [], "economy": "+", "government": "+", "hygiene": "+", "awareness": "+"}, "Vaduz": {"name": "Vaduz", "latitude": 47.139719, "longitude": 9.521993, "population": 6, "connections": [], "economy": "++", "government": "++", "hygiene": "+", "awareness": "++"}, "Vancouver": {"name": "Vancouver", "latitude": 49.282804, "longitude": -123.121846, "population": 2463, "connections": ["\u12a0\u12f2\u1235 \u12a0\u1260\u1263", "Los Angeles", "Charlotte", "Wellington", "Gda\u0144sk"], "economy": "+", "government": "+", "hygiene": "+", "awareness": "+"}, "Vilnius": {"name": "Vilnius", "latitude": 54.677467, "longitude": 25.266659, "population": 544, "connections": ["\u0915\u093e\u0920\u092e\u093e\u0921\u094c\u0901", "\u6210\u90fd\u5e02"], "economy": "+", "government": "o", "hygiene": "+", "awareness": "+"}, "Warszawa": {"name": "Warszawa", "latitude": 52.22955, "longitude": 21.013112, "population": 1765, "connections": ["\u957f\u6625\u5e02", "Abuja", "Porto Alegre", "\u6210\u90fd\u5e02", "Nashville", "\u041f\u0435\u0442\u0440\u043e\u043f\u0430\u0432\u043b\u043e\u0432\u0441\u043a-\u041a\u0430\u043c\u0447\u0430\u0442\u0441\u043a\u0438\u0439", "\u0414\u0443\u0448\u0430\u043d\u0431\u0435"], "economy": "o", "government": "+", "hygiene": "+", "awareness": "o"}, "Washington, D.C.": {"name": "Washington, D.C.", "latitude": 38.907165, "longitude": -77.042004, "population": 6132, "connections": ["Gaborone", "Windhoek", "Paris", "Ciudad de M\u00e9xico", "Recife", "\u092e\u0941\u0902\u092c\u0908", "Kinshasa", "\u0628\u063a\u062f\u0627\u062f"], "economy": "o", "government": "o", "hygiene": "o", "awareness": "o"}, "Wellington": {"name": "Wellington", "latitude": -41.284544, "longitude": 174.780388, "population": 191, "connections": ["Bak\u0131", "Vancouver", "\u0535\u0580\u0587\u0561\u0576", "Toronto"], "economy": "++", "government": "+", "hygiene": "++", "awareness": "++"}, "Wien": {"name": "Wien", "latitude": 48.207166, "longitude": 16.373535, "population": 1868, "connections": ["Ottawa", "\u0423\u043b\u0430\u0430\u043d\u0431\u0430\u0430\u0442\u0430\u0440", "\u0535\u0580\u0587\u0561\u0576", "Conakry", "Pot Mosbi", "Hamburg", "Boston", "Praha", "Toronto"], "economy": "++", "government": "+", "hygiene": "+", "awareness": "+"}, "Windhoek": {"name": "Windhoek", "latitude": -22.561205, "longitude": 17.064971, "population": 326, "connections": ["Harare", "Washington, D.C.", "\u9999\u6e2f", "Strasbourg", "Springfield (Missouri)"], "economy": "o", "government": "o", "hygiene": "o", "awareness": "o"}, "Winnipeg": {"name": "Winnipeg", "latitude": 49.896219, "longitude": -97.143992, "population": 730, "connections": ["New Orleans", "Ciudad de Guatemala", "Springfield (Missouri)", "Toronto", "Roma", "\u09a2\u09be\u0995\u09be"], "economy": "o", "government": "+", "hygiene": "++", "awareness": "+"}, "Yamoussoukro": {"name": "Yamoussoukro", "latitude": 6.828338, "longitude": -5.286286, "population": 213, "connections": ["\u10d7\u10d1\u10d8\u10da\u10d8\u10e1\u10d8", "Lusaka", "\u0627\u0633\u0644\u0627\u0645 \u0622\u0628\u0627\u062f", "Houston", "Accra", "Porto-Novo", "Madrid"], "economy": "o", "government": "o", "hygiene": "o", "awareness": "o"}, "Yaound\u00e9": {"name": "Yaound\u00e9", "latitude": 3.8488, "longitude": 11.500151, "population": 1927, "connections": ["Santo Domingo", "\u6fb3\u9580", "\u041c\u043e\u0441\u043a\u0432\u0430", "Cleveland", "\u12a0\u12f2\u1235 \u12a0\u1260\u1263"], "economy": "-", "government": "o", "hygiene": "o", "awareness": "-"}, "Zagreb": {"name": "Zagreb", "latitude": 45.814816, "longitude": 15.983556, "population": 793, "connections": ["Gda\u0144sk", "\u062a\u0648\u0646\u0633", "Barcelona"], "economy": "o", "government": "o", "hygiene": "o", "awareness": "o"}, "\u0391\u03b8\u03ae\u03bd\u03b1": {"name": "\u0391\u03b8\u03ae\u03bd\u03b1", "latitude": 38.065338, "longitude": 23.719113, "population": 664, "connections": ["Ciudad de M\u00e9xico", "\u0628\u063a\u062f\u0627\u062f", "Tegucigalpa"], "economy": "o", "government": "o", "hygiene": "o", "awareness": "o"}, "\u039b\u03b5\u03c5\u03ba\u03c9\u03c3\u03af\u03b1": {"name": "\u039b\u03b5\u03c5\u03ba\u03c9\u03c3\u03af\u03b1", "latitude": 35.185093, "longitude": 33.383325, "population": 276, "connections": ["Salt Lake City", "\u09a2\u09be\u0995\u09be"], "economy": "+", "government": "o", "hygiene": "+", "awareness": "+"}, "\u0411\u0435\u043e\u0433\u0440\u0430\u0434": {"name": "\u0411\u0435\u043e\u0433\u0440\u0430\u0434", "latitude": 44.806909, "longitude": 20.439927, "population": 1374, "connections": ["Cincinnati", "Portland", "Denver", "Ciudad de C\u00f3rdoba", "\u0421\u043a\u043e\u043f\u0458\u0435"], "economy": "o", "government": "o", "hygiene": "+", "awareness": "+"}, "\u0411\u0438\u0448\u043a\u0435\u043a": {"name": "\u0411\u0438\u0448\u043a\u0435\u043a", "latitude": 42.875596, "longitude": 74.56611, "population": 977, "connections": ["Detroit", "\u0421\u043e\u0444\u0438\u044f", "\u0627\u0644\u062e\u0631\u0637\u0648\u0645"], "economy": "o", "government": "-", "hygiene": "o", "awareness": "o"}, "\u0412\u043b\u0430\u0434\u0438\u0432\u043e\u0441\u0442\u043e\u043a": {"name": "\u0412\u043b\u0430\u0434\u0438\u0432\u043e\u0441\u0442\u043e\u043a", "latitude": 43.120517, "longitude": 131.870348, "population": 599, "connections": ["\u0b9a\u0bbf\u0b99\u0bcd\u0b95\u0baa\u0bcd\u0baa\u0bc2\u0bb0\u0bcd \u0b95\u0bc1\u0b9f\u0bbf\u0baf\u0bb0\u0b9a\u0bc1", "\u041d\u04b1\u0440-\u0421\u04b1\u043b\u0442\u0430\u043d", "\u062a\u0647\u0631\u0627\u0646"], "economy": "o", "government": "o", "hygiene": "+", "awareness": "++"}, "\u0414\u043e\u043d\u0435\u0446\u044c\u043a": {"name": "\u0414\u043e\u043d\u0435\u0446\u044c\u043a", "latitude": 48.013298, "longitude": 37.800314, "population": 919, "connections": ["Detroit", "\u1014\u1031\u1015\u103c\u100a\u103a\u1010\u1031\u102c\u103a", "Lom\u00e9"], "economy": "o", "government": "o", "hygiene": "o", "awareness": "+"}, "\u0414\u0443\u0448\u0430\u043d\u0431\u0435": {"name": "\u0414\u0443\u0448\u0430\u043d\u0431\u0435", "latitude": 38.561035, "longitude": 68.786042, "population": 770, "connections": ["Dodoma", "Chicago", "Warszawa"], "economy": "-", "government": "o", "hygiene": "o", "awareness": "o"}, "\u041a\u0438\u0457\u0432": {"name": "\u041a\u0438\u0457\u0432", "latitude": 50.451382, "longitude": 30.520325, "population": 2952, "connections": ["Pretoria", "\u0421\u0430\u043d\u043a\u0442-\u041f\u0435\u0442\u0435\u0440\u0431\u0443\u0440\u0433", "\u041c\u0443\u0440\u043c\u0430\u043d\u0441\u043a", "Brisbane", "\u6771\u4eac", "Conakry"], "economy": "+", "government": "+", "hygiene": "+", "awareness": "o"}, "\u041c\u043e\u0441\u043a\u0432\u0430": {"name": "\u041c\u043e\u0441\u043a\u0432\u0430", "latitude": 55.754797, "longitude": 37.622831, "population": 11920, "connections": ["\u0628\u063a\u062f\u0627\u062f", "\u041f\u0435\u0440\u043c\u044c", "Yaound\u00e9", "\u4e34\u6c82\u5e02", "\u0627\u0644\u0631\u064a\u0627\u0636", "Kinshasa", "\u91cd\u5e86\u5e02", "Reykjav\u00edk", "Kampala", "\uc11c\uc6b8\ud2b9\ubcc4\uc2dc"], "economy": "+", "government": "o", "hygiene": "+", "awareness": "+"}, "\u041c\u0443\u0440\u043c\u0430\u043d\u0441\u043a": {"name": "\u041c\u0443\u0440\u043c\u0430\u043d\u0441\u043a", "latitude": 68.956676, "longitude": 33.078235, "population": 307, "connections": ["\u0628\u063a\u062f\u0627\u062f", "\u041a\u0438\u0457\u0432", "Lusaka"], "economy": "o", "government": "+", "hygiene": "+", "awareness": "o"}, "\u041c\u0456\u043d\u0441\u043a": {"name": "\u041c\u0456\u043d\u0441\u043a", "latitude": 53.899187, "longitude": 27.558348, "population": 1975, "connections": ["Salt Lake City", "\u0627\u0644\u0631\u064a\u0627\u0636", "\u0e01\u0e23\u0e38\u0e07\u0e40\u0e17\u0e1e\u0e21\u0e2b\u0e32\u0e19\u0e04\u0e23", "Phoenix", "Lima"], "economy": "+", "government": "+", "hygiene": "o", "awareness": "+"}, "\u041d\u043e\u0432\u043e\u0441\u0438\u0431\u0438\u0440\u0441\u043a": {"name": "\u041d\u043e\u0432\u043e\u0441\u0438\u0431\u0438\u0440\u0441\u043a", "latitude": 55.012441, "longitude": 82.93292, "population": 1511, "connections": ["\u0627\u0644\u062f\u0648\u062d\u0629", "Milwaukee", "\u4e34\u6c82\u5e02", "Las Vegas", "Madrid"], "economy": "+", "government": "+", "hygiene": "+", "awareness": "+"}, "\u041d\u04b1\u0440-\u0421\u04b1\u043b\u0442\u0430\u043d": {"name": "\u041d\u04b1\u0440-\u0421\u04b1\u043b\u0442\u0430\u043d", "latitude": 51.158199, "longitude": 71.47801, "population": 1002, "connections": ["Quito", "Amsterdam", "Rio de Janeiro", "\u0412\u043b\u0430\u0434\u0438\u0432\u043e\u0441\u0442\u043e\u043a", "\u0628\u064a\u0631\u0648\u062a"], "economy": "o", "government": "o", "hygiene": "o", "awareness": "o"}, "\u041f\u0435\u0440\u043c\u044c": {"name": "\u041f\u0435\u0440\u043c\u044c", "latitude": 58.026591, "longitude": 56.258989, "population": 991, "connections": ["Edinburgh", "Milwaukee", "\u041c\u043e\u0441\u043a\u0432\u0430", "Nairobi"], "economy": "+", "government": "++", "hygiene": "+", "awareness": "+"}, "\u041f\u0435\u0442\u0440\u043e\u043f\u0430\u0432\u043b\u043e\u0432\u0441\u043a-\u041a\u0430\u043c\u0447\u0430\u0442\u0441\u043a\u0438\u0439": {"name": "\u041f\u0435\u0442\u0440\u043e\u043f\u0430\u0432\u043b\u043e\u0432\u0441\u043a-\u041a\u0430\u043c\u0447\u0430\u0442\u0441\u043a\u0438\u0439", "latitude": 53.043017, "longitude": 158.681761, "population": 181, "connections": ["\u12a0\u12f2\u1235 \u12a0\u1260\u1263", "\u9999\u6e2f", "\u0635\u0646\u0639\u0627\u0621\u200e", "Warszawa", "\uc11c\uc6b8\ud2b9\ubcc4\uc2dc"], "economy": "o", "government": "+", "hygiene": "+", "awareness": "+"}, "\u041f\u043e\u0434\u0433\u043e\u0440\u0438\u0446\u0430": {"name": "\u041f\u043e\u0434\u0433\u043e\u0440\u0438\u0446\u0430", "latitude": 42.433871, "longitude": 19.258892, "population": 186, "connections": ["Brazzaville", "\u0421\u043a\u043e\u043f\u0458\u0435", "\u4e34\u6c82\u5e02", "Houston"], "economy": "o", "government": "o", "hygiene": "o", "awareness": "+"}, "\u0421\u0430\u043d\u043a\u0442-\u041f\u0435\u0442\u0435\u0440\u0431\u0443\u0440\u0433": {"name": "\u0421\u0430\u043d\u043a\u0442-\u041f\u0435\u0442\u0435\u0440\u0431\u0443\u0440\u0433", "latitude": 59.936461, "longitude": 30.306277, "population": 4880, "connections": ["Ouagadougou", "\u041a\u0438\u0457\u0432", "Toulouse", "\u092e\u0941\u0902\u092c\u0908", "Oslo", "\u10d7\u10d1\u10d8\u10da\u10d8\u10e1\u10d8", "Honolulu", "Niamey", "K\u00f6ln"], "economy": "+", "government": "+", "hygiene": "+", "awareness": "+"}, "\u0421\u0430\u0440\u0430\u0458\u0435\u0432\u043e": {"name": "\u0421\u0430\u0440\u0430\u0458\u0435\u0432\u043e", "latitude": 43.855589, "longitude": 18.417665, "population": 291, "connections": ["\u0623\u0628\u0648 \u0638\u0628\u064a", "\u6b66\u6c49\u5e02", "Maputo"], "economy": "o", "government": "o", "hygiene": "o", "awareness": "o"}, "\u0421\u043a\u043e\u043f\u0458\u0435": {"name": "\u0421\u043a\u043e\u043f\u0458\u0435", "latitude": 42.00508, "longitude": 21.436219, "population": 547, "connections": ["\u041f\u043e\u0434\u0433\u043e\u0440\u0438\u0446\u0430", "Maseru", "\u0411\u0435\u043e\u0433\u0440\u0430\u0434", "Bern"], "economy": "o", "government": "+", "hygiene": "+", "awareness": "o"}, "\u0421\u043e\u0444\u0438\u044f": {"name": "\u0421\u043e\u0444\u0438\u044f", "latitude": 42.72738, "longitude": 23.313681, "population": 1236, "connections": ["Kampala", "\u0411\u0438\u0448\u043a\u0435\u043a", "Dakar", "\u0928\u0908 \u0926\u093f\u0932\u094d\u0932\u0940", "\u0627\u0644\u0631\u0650\u0651\u0628\u064e\u0627\u0637\u200e"], "economy": "+", "government": "+", "hygiene": "+", "awareness": "o"}, "\u0422\u043e\u0448\u043a\u0435\u043d\u0442": {"name": "\u0422\u043e\u0448\u043a\u0435\u043d\u0442", "latitude": 41.302633, "longitude": 69.244341, "population": 2393, "connections": ["\u4e4c\u9c81\u6728\u9f50\u5e02", "\u0b9a\u0bbf\u0b99\u0bcd\u0b95\u0baa\u0bcd\u0baa\u0bc2\u0bb0\u0bcd \u0b95\u0bc1\u0b9f\u0bbf\u0baf\u0bb0\u0b9a\u0bc1", "\u6fb3\u9580", "Stockholm", "A\u015fgabat", "Phoenix"], "economy": "o", "government": "o", "hygiene": "o", "awareness": "o"}, "\u0423\u043b\u0430\u0430\u043d\u0431\u0430\u0430\u0442\u0430\u0440": {"name": "\u0423\u043b\u0430\u0430\u043d\u0431\u0430\u0430\u0442\u0430\u0440", "latitude": 47.885643, "longitude": 106.906333, "population": 1452, "connections": ["Wien", "Bang\u00ee", "\u4e4c\u9c81\u6728\u9f50\u5e02", "Ciudad de C\u00f3rdoba", "Asunci\u00f3n", "Bak\u0131"], "economy": "+", "government": "o", "hygiene": "+", "awareness": "+"}, "\u0425\u0430\u0442\u0430\u043d\u0433\u0430": {"name": "\u0425\u0430\u0442\u0430\u043d\u0433\u0430", "latitude": 71.964, "longitude": 102.440398, "population": 3, "connections": [], "economy": "o", "government": "+", "hygiene": "o", "awareness": "o"}, "\u042f\u043a\u0443\u0442\u0441\u043a": {"name": "\u042f\u043a\u0443\u0442\u0441\u043a", "latitude": 62.034779, "longitude": 129.675975, "population": 270, "connections": ["Ciudad de C\u00f3rdoba", "Maseru", "Kinshasa", "Brazzaville", "Montreal"], "economy": "+", "government": "o", "hygiene": "+", "awareness": "o"}, "\u0535\u0580\u0587\u0561\u0576": {"name": "\u0535\u0580\u0587\u0561\u0576", "latitude": 40.188261, "longitude": 44.516031, "population": 1075, "connections": ["Wien", "Wellington", "Kansas City", "Albuquerque", "Ottawa"], "economy": "o", "government": "o", "hygiene": "o", "awareness": "o"}, "\u05d9\u05e8\u05d5\u05e9\u05dc\u05d9\u05dd": {"name": "\u05d9\u05e8\u05d5\u05e9\u05dc\u05d9\u05dd", "latitude": 31.76945, "longitude": 35.211749, "population": 874, "connections": ["Bergen", "\u092e\u0941\u0902\u092c\u0908"], "economy": "o", "government": "+", "hygiene": "+", "awareness": "+"}, "\u0623\u0628\u0648 \u0638\u0628\u064a": {"name": "\u0623\u0628\u0648 \u0638\u0628\u064a", "latitude": 24.461165, "longitude": 54.380084, "population": 1206, "connections": ["\u0421\u0430\u0440\u0430\u0458\u0435\u0432\u043e", "Phoenix", "San Jos\u00e9", "Amsterdam", "\u09a2\u09be\u0995\u09be"], "economy": "++", "government": "++", "hygiene": "++", "awareness": "++"}, "\u0623\u0633\u0645\u0631\u0629": {"name": "\u0623\u0633\u0645\u0631\u0629", "latitude": 15.323331, "longitude": 38.922393, "population": 896, "connections": ["\u4e0a\u6d77\u5e02", "Ottawa", "Cincinnati"], "economy": "o", "government": "o", "hygiene": "o", "awareness": "-"}, "\u0627\u0633\u0644\u0627\u0645 \u0622\u0628\u0627\u062f": {"name": "\u0627\u0633\u0644\u0627\u0645 \u0622\u0628\u0627\u062f", "latitude": 33.6812, "longitude": 73.039408, "population": 1015, "connections": ["Yamoussoukro", "Malabo", "\u06a9\u0627\u0628\u0644", "Sydney", "Phoenix"], "economy": "o", "government": "o", "hygiene": "-", "awareness": "o"}, "\u0627\u0644\u062e\u0631\u0637\u0648\u0645": {"name": "\u0627\u0644\u062e\u0631\u0637\u0648\u0645", "latitude": 15.504181, "longitude": 32.554741, "population": 8364, "connections": ["Paramaribo", "\u9999\u6e2f", "\u0411\u0438\u0448\u043a\u0435\u043a", "Nashville", "\u6771\u4eac", "Nairobi", "\u4e0a\u6d77\u5e02", "\u6606\u660e\u5e02", "\u092e\u0941\u0902\u092c\u0908"], "economy": "o", "government": "-", "hygiene": "-", "awareness": "o"}, "\u0627\u0644\u062f\u0648\u062d\u0629": {"name": "\u0627\u0644\u062f\u0648\u062d\u0629", "latitude": 25.279646, "longitude": 51.530877, "population": 797, "connections": ["\u041d\u043e\u0432\u043e\u0441\u0438\u0431\u0438\u0440\u0441\u043a", "Lom\u00e9"], "economy": "++", "government": "+", "hygiene": "+", "awareness": "+"}, "\u0627\u0644\u0631\u064a\u0627\u0636": {"name": "\u0627\u0644\u0631\u064a\u0627\u0636", "latitude": 24.723684, "longitude": 46.682419, "population": 5188, "connections": ["Portland", "\u041c\u0456\u043d\u0441\u043a", "\u041c\u043e\u0441\u043a\u0432\u0430", "Houston", "\uc11c\uc6b8\ud2b9\ubcc4\uc2dc", "\u1014\u1031\u1015\u103c\u100a\u103a\u1010\u1031\u102c\u103a", "\u0628\u063a\u062f\u0627\u062f", "Ciudad de Panam\u00e1"], "economy": "++", "government": "+", "hygiene": "+", "awareness": "++"}, "\u0627\u0644\u0631\u0650\u0651\u0628\u064e\u0627\u0637\u200e": {"name": "\u0627\u0644\u0631\u0650\u0651\u0628\u064e\u0627\u0637\u200e", "latitude": 33.973755, "longitude": -6.851085, "population": 578, "connections": ["\u0635\u0646\u0639\u0627\u0621\u200e", "\u6606\u660e\u5e02", "Quito", "Dodoma", "L\u00ebtzebuerg", "\u0421\u043e\u0444\u0438\u044f"], "economy": "o", "government": "o", "hygiene": "o", "awareness": "o"}, "\u0627\u0644\u0639\u064a\u0648\u0646": {"name": "\u0627\u0644\u0639\u064a\u0648\u0646", "latitude": 27.151611, "longitude": -13.200184, "population": 218, "connections": ["\u0928\u0908 \u0926\u093f\u0932\u094d\u0932\u0940", "Port-au-Prince", "Porto Alegre", "Santiago de Chile", "\u0645\u0633\u0642\u0637"], "economy": "o", "government": "o", "hygiene": "o", "awareness": "o"}, "\u0627\u0644\u0645\u0646\u0627\u0645\u0629": {"name": "\u0627\u0644\u0645\u0646\u0627\u0645\u0629", "latitude": 26.223995, "longitude": 50.587652, "population": 155, "connections": ["\u0627\u0650\u0646\u0652\u062c\u064e\u0645\u0650\u064a\u0646\u064e\u0627", "Manaus", "\u6b66\u6c49\u5e02", "\u6606\u660e\u5e02", "Bras\u00edlia", "Budapest"], "economy": "+", "government": "+", "hygiene": "+", "awareness": "+"}, "\u0627\u0650\u0646\u0652\u062c\u064e\u0645\u0650\u064a\u0646\u064e\u0627": {"name": "\u0627\u0650\u0646\u0652\u062c\u064e\u0645\u0650\u064a\u0646\u064e\u0627", "latitude": 12.133307, "longitude": 15.053682, "population": 1092, "connections": ["\u0627\u0644\u0645\u0646\u0627\u0645\u0629", "\u179a\u17b6\u1787\u1792\u17b6\u1793\u17b8\u200b\u1797\u17d2\u1793\u17c6\u1796\u17c1\u1789", "\u12a0\u12f2\u1235 \u12a0\u1260\u1263", "Minneapolis", "Antananarivo"], "economy": "o", "government": "-", "hygiene": "-", "awareness": "o"}, "\u0628\u063a\u062f\u0627\u062f": {"name": "\u0628\u063a\u062f\u0627\u062f", "latitude": 33.316831, "longitude": 44.365516, "population": 7665, "connections": ["La Habana", "Budapest", "Bogot\u00e1", "\u0b9a\u0bbf\u0b99\u0bcd\u0b95\u0baa\u0bcd\u0baa\u0bc2\u0bb0\u0bcd \u0b95\u0bc1\u0b9f\u0bbf\u0baf\u0bb0\u0b9a\u0bc1", "\u041c\u043e\u0441\u043a\u0432\u0430", "\u0391\u03b8\u03ae\u03bd\u03b1", "\u0627\u0644\u0631\u064a\u0627\u0636", "Houston", "\u041c\u0443\u0440\u043c\u0430\u043d\u0441\u043a", "\u0928\u0908 \u0926\u093f\u0932\u094d\u0932\u0940", "H\u00e0 N\u1ed9i", "Washington, D.C.", "\u4e0a\u6d77\u5e02"], "economy": "-", "government": "-", "hygiene": "-", "awareness": "o"}, "\u0628\u064a\u0631\u0648\u062a": {"name": "\u0628\u064a\u0631\u0648\u062a", "latitude": 33.894418, "longitude": 35.501364, "population": 2060, "connections": ["\u041d\u04b1\u0440-\u0421\u04b1\u043b\u0442\u0430\u043d", "\u5e83\u5cf6\u5e02", "Toronto", "Monrovia", "Bang\u00ee", "Ljubljana"], "economy": "o", "government": "-", "hygiene": "o", "awareness": "-"}, "\u062a\u0647\u0631\u0627\u0646": {"name": "\u062a\u0647\u0631\u0627\u0646", "latitude": 35.694502, "longitude": 51.377963, "population": 8694, "connections": ["Rio de Janeiro", "\u0412\u043b\u0430\u0434\u0438\u0432\u043e\u0441\u0442\u043e\u043a", "Chicago", "Tirana", "\u91cd\u5e86\u5e02", "\u6b66\u6c49\u5e02", "\u0635\u0646\u0639\u0627\u0621\u200e", "Roma", "Jakarta"], "economy": "+", "government": "+", "hygiene": "+", "awareness": "+"}, "\u062a\u0648\u0646\u0633": {"name": "\u062a\u0648\u0646\u0633", "latitude": 36.808333, "longitude": 10.183444, "population": 639, "connections": ["Zagreb", "Cape Town"], "economy": "+", "government": "+", "hygiene": "+", "awareness": "o"}, "\u062f\u0645\u0634\u0642": {"name": "\u062f\u0645\u0634\u0642", "latitude": 33.514198, "longitude": 36.275857, "population": 1711, "connections": ["Buenos Aires", "\u6210\u90fd\u5e02", "Belfast", "Pretoria", "\ud3c9\uc591", "Ciudad de C\u00f3rdoba"], "economy": "-", "government": "-", "hygiene": "-", "awareness": "--"}, "\u0635\u0646\u0639\u0627\u0621\u200e": {"name": "\u0635\u0646\u0639\u0627\u0621\u200e", "latitude": 15.372441, "longitude": 44.191022, "population": 3937, "connections": ["\u041f\u0435\u0442\u0440\u043e\u043f\u0430\u0432\u043b\u043e\u0432\u0441\u043a-\u041a\u0430\u043c\u0447\u0430\u0442\u0441\u043a\u0438\u0439", "\u0627\u0644\u0631\u0650\u0651\u0628\u064e\u0627\u0637\u200e", "K\u00f6ln", "Miami", "\u4e4c\u9c81\u6728\u9f50\u5e02", "\u062a\u0647\u0631\u0627\u0646"], "economy": "-", "government": "-", "hygiene": "-", "awareness": "-"}, "\u0637\u0631\u0627\u0628\u0644\u0633": {"name": "\u0637\u0631\u0627\u0628\u0644\u0633", "latitude": 32.887837, "longitude": 13.190653, "population": 1158, "connections": ["Brazzaville", "Helsinki", "H\u00e0 N\u1ed9i", "Roma", "Juba"], "economy": "o", "government": "o", "hygiene": "o", "awareness": "o"}, "\u0639\u0645\u0627\u0646": {"name": "\u0639\u0645\u0627\u0646", "latitude": 31.951697, "longitude": 35.912604, "population": 4008, "connections": ["\u5e83\u5cf6\u5e02", "Montreal", "Bras\u00edlia", "Bloemfontein", "Bratislava"], "economy": "-", "government": "o", "hygiene": "o", "awareness": "o"}, "\u0643\u0648\u0627\u0644\u0627 \u0644\u0648\u0645\u06a4\u0648\u0631": {"name": "\u0643\u0648\u0627\u0644\u0627 \u0644\u0648\u0645\u06a4\u0648\u0631", "latitude": 3.138161, "longitude": 101.679091, "population": 8063, "connections": ["Luanda", "\u6771\u4eac", "Ljubljana", "\u09a2\u09be\u0995\u09be", "Kinshasa", "Bogot\u00e1", "Maputo", "Belfast", "Chicago"], "economy": "o", "government": "+", "hygiene": "+", "awareness": "o"}, "\u0645\u062f\u064a\u0646\u0629 \u0627\u0644\u062c\u0632\u0627\u0626\u0631": {"name": "\u0645\u062f\u064a\u0646\u0629 \u0627\u0644\u062c\u0632\u0627\u0626\u0631", "latitude": 36.730492, "longitude": 3.0878, "population": 3416, "connections": ["El Paso", "Ouagadougou", "Nairobi", "Ljubljana", "Santiago de Chile"], "economy": "o", "government": "+", "hygiene": "o", "awareness": "o"}, "\u0645\u0633\u0642\u0637": {"name": "\u0645\u0633\u0642\u0637", "latitude": 23.585252, "longitude": 58.380405, "population": 1720, "connections": ["Dallas", "\ud3c9\uc591", "\u0627\u0644\u0639\u064a\u0648\u0646", "Dakar", "Nantes"], "economy": "o", "government": "o", "hygiene": "+", "awareness": "+"}, "\u0646\u0648\u0627\u0643\u0634\u0648\u0637": {"name": "\u0646\u0648\u0627\u0643\u0634\u0648\u0637", "latitude": 18.073033, "longitude": -15.960086, "population": 958, "connections": ["Austin", "Kinshasa", "Praha", "Maputo", "Buenos Aires"], "economy": "+", "government": "o", "hygiene": "o", "awareness": "o"}, "\u06a9\u0627\u0628\u0644": {"name": "\u06a9\u0627\u0628\u0644", "latitude": 34.549668, "longitude": 69.207336, "population": 4600, "connections": ["Bak\u0131", "\u0627\u0633\u0644\u0627\u0645 \u0622\u0628\u0627\u062f", "Edmonton", "Milano", "\u10d7\u10d1\u10d8\u10da\u10d8\u10e1\u10d8", "Antananarivo", "Bern", "Minneapolis", "Seattle"], "economy": "o", "government": "-", "hygiene": "o", "awareness": "-"}, "\u0915\u093e\u0920\u092e\u093e\u0921\u094c\u0901": {"name": "\u0915\u093e\u0920\u092e\u093e\u0921\u094c\u0901", "latitude": 27.718226, "longitude": 85.320639, "population": 1003, "connections": ["G\u00f6teborg", "Vilnius", "Lusaka", "\u53f0\u5317", "Berlin"], "economy": "o", "government": "o", "hygiene": "+", "awareness": "+"}, "\u0928\u0908 \u0926\u093f\u0932\u094d\u0932\u0940": {"name": "\u0928\u0908 \u0926\u093f\u0932\u094d\u0932\u0940", "latitude": 28.615314, "longitude": 77.211043, "population": 21800, "connections": ["\u4e0a\u6d77\u5e02", "Dallas", "\u09a2\u09be\u0995\u09be", "\u0628\u063a\u062f\u0627\u062f", "\u0627\u0644\u0639\u064a\u0648\u0646", "New York City", "H\u00e0 N\u1ed9i", "Berlin", "\u897f\u5b89\u5e02", "Prishtin\u00eb", "\u0421\u043e\u0444\u0438\u044f"], "economy": "+", "government": "o", "hygiene": "o", "awareness": "o"}, "\u092e\u0941\u0902\u092c\u0908": {"name": "\u092e\u0941\u0902\u092c\u0908", "latitude": 19.074411, "longitude": 72.89079, "population": 28860, "connections": ["\u0421\u0430\u043d\u043a\u0442-\u041f\u0435\u0442\u0435\u0440\u0431\u0443\u0440\u0433", "Washington, D.C.", "\u0627\u0644\u062e\u0631\u0637\u0648\u0645", "Atlanta", "Los Angeles", "\u05d9\u05e8\u05d5\u05e9\u05dc\u05d9\u05dd", "Nairobi", "Dallas", "Sevilla"], "economy": "o", "government": "o", "hygiene": "o", "awareness": "o"}, "\u09a2\u09be\u0995\u09be": {"name": "\u09a2\u09be\u0995\u09be", "latitude": 23.813919, "longitude": 90.413144, "population": 8906, "connections": ["\u0623\u0628\u0648 \u0638\u0628\u064a", "Winnipeg", "\u5317\u4eac\u5e02", "Bogot\u00e1", "\u0928\u0908 \u0926\u093f\u0932\u094d\u0932\u0940", "\u0643\u0648\u0627\u0644\u0627 \u0644\u0648\u0645\u06a4\u0648\u0631", "\u6606\u660e\u5e02", "Budapest", "\uc11c\uc6b8\ud2b9\ubcc4\uc2dc", "\u039b\u03b5\u03c5\u03ba\u03c9\u03c3\u03af\u03b1"], "economy": "+", "government": "o", "hygiene": "o", "awareness": "o"}, "\u0b9a\u0bbf\u0b99\u0bcd\u0b95\u0baa\u0bcd\u0baa\u0bc2\u0bb0\u0bcd \u0b95\u0bc1\u0b9f\u0bbf\u0baf\u0bb0\u0b9a\u0bc1": {"name": "\u0b9a\u0bbf\u0b99\u0bcd\u0b95\u0baa\u0bcd\u0baa\u0bc2\u0bb0\u0bcd \u0b95\u0bc1\u0b9f\u0bbf\u0baf\u0bb0\u0b9a\u0bc1", "latitude": 1.366398, "longitude": 103.8455, "population": 5709, "connections": ["\u0628\u063a\u062f\u0627\u062f", "\u0422\u043e\u0448\u043a\u0435\u043d\u0442", "\u0412\u043b\u0430\u0434\u0438\u0432\u043e\u0441\u0442\u043e\u043a", "\u897f\u5b89\u5e02", "Philadelphia", "\u0e01\u0e23\u0e38\u0e07\u0e40\u0e17\u0e1e\u0e21\u0e2b\u0e32\u0e19\u0e04\u0e23", "Houston", "Oslo"], "economy": "+", "government": "+", "hygiene": "o", "awareness": "+"}, "\u0d9a\u0ddc\u0dc5\u0db9": {"name": "\u0d9a\u0ddc\u0dc5\u0db9", "latitude": 6.925927, "longitude": 79.864788, "population": 753, "connections": ["\u53a6\u95e8\u5e02", "Bruxelles"], "economy": "+", "government": "+", "hygiene": "+", "awareness": "o"}, "\u0e01\u0e23\u0e38\u0e07\u0e40\u0e17\u0e1e\u0e21\u0e2b\u0e32\u0e19\u0e04\u0e23": {"name": "\u0e01\u0e23\u0e38\u0e07\u0e40\u0e17\u0e1e\u0e21\u0e2b\u0e32\u0e19\u0e04\u0e23", "latitude": 13.759911, "longitude": 100.539718, "population": 8281, "connections": ["\u4e34\u6c82\u5e02", "\u6210\u90fd\u5e02", "Jakarta", "Ciudad de Panam\u00e1", "\u0b9a\u0bbf\u0b99\u0bcd\u0b95\u0baa\u0bcd\u0baa\u0bc2\u0bb0\u0bcd \u0b95\u0bc1\u0b9f\u0bbf\u0baf\u0bb0\u0b9a\u0bc1", "Kigali", "\u041c\u0456\u043d\u0441\u043a", "Bujumbura"], "economy": "+", "government": "o", "hygiene": "+", "awareness": "++"}, "\u0ea7\u0ebd\u0e87\u0e88\u0eb1\u0e99": {"name": "\u0ea7\u0ebd\u0e87\u0e88\u0eb1\u0e99", "latitude": 17.980348, "longitude": 103, "population": 754, "connections": ["Cleveland", "Denver", "\u179a\u17b6\u1787\u1792\u17b6\u1793\u17b8\u200b\u1797\u17d2\u1793\u17c6\u1796\u17c1\u1789", "Nashville", "Perth"], "economy": "o", "government": "o", "hygiene": "o", "awareness": "o"}, "\u0f50\u0f72\u0f58\u0f0b\u0f55\u0f74\u0f0b": {"name": "\u0f50\u0f72\u0f58\u0f0b\u0f55\u0f74\u0f0b", "latitude": 27.471326, "longitude": 89.633245, "population": 115, "connections": ["Managua", "Niamey", "K\u00f6ln", "Antananarivo"], "economy": "o", "government": "o", "hygiene": "+", "awareness": "o"}, "\u1014\u1031\u1015\u103c\u100a\u103a\u1010\u1031\u102c\u103a": {"name": "\u1014\u1031\u1015\u103c\u100a\u103a\u1010\u1031\u102c\u103a", "latitude": 19.763475, "longitude": 96.078624, "population": 1160, "connections": ["Detroit", "\u0627\u0644\u0631\u064a\u0627\u0636", "Nassau", "\u0414\u043e\u043d\u0435\u0446\u044c\u043a", "Ciudad de C\u00f3rdoba"], "economy": "+", "government": "o", "hygiene": "+", "awareness": "o"}, "\u10d7\u10d1\u10d8\u10da\u10d8\u10e1\u10d8": {"name": "\u10d7\u10d1\u10d8\u10da\u10d8\u10e1\u10d8", "latitude": 41.717832, "longitude": 44.826491, "population": 1114, "connections": ["Kingston", "Yamoussoukro", "Maputo", "\u0421\u0430\u043d\u043a\u0442-\u041f\u0435\u0442\u0435\u0440\u0431\u0443\u0440\u0433", "\u06a9\u0627\u0628\u0644"], "economy": "o", "government": "o", "hygiene": "o", "awareness": "o"}, "\u12a0\u12f2\u1235 \u12a0\u1260\u1263": {"name": "\u12a0\u12f2\u1235 \u12a0\u1260\u1263", "latitude": 8.985552, "longitude": 38.7572, "population": 3352, "connections": ["\u0627\u0650\u0646\u0652\u062c\u064e\u0645\u0650\u064a\u0646\u064e\u0627", "\u041f\u0435\u0442\u0440\u043e\u043f\u0430\u0432\u043b\u043e\u0432\u0441\u043a-\u041a\u0430\u043c\u0447\u0430\u0442\u0441\u043a\u0438\u0439", "Yaound\u00e9", "Caracas", "Asunci\u00f3n", "Vancouver", "New Orleans"], "economy": "o", "government": "-", "hygiene": "-", "awareness": "-"}, "\u179a\u17b6\u1787\u1792\u17b6\u1793\u17b8\u200b\u1797\u17d2\u1793\u17c6\u1796\u17c1\u1789": {"name": "\u179a\u17b6\u1787\u1792\u17b6\u1793\u17b8\u200b\u1797\u17d2\u1793\u17c6\u1796\u17c1\u1789", "latitude": 11.555113, "longitude": 104.925883, "population": 1502, "connections": ["Freetown", "\u0627\u0650\u0646\u0652\u062c\u064e\u0645\u0650\u064a\u0646\u064e\u0627", "\u0ea7\u0ebd\u0e87\u0e88\u0eb1\u0e99", "Port-au-Prince", "Tallinn"], "economy": "o", "government": "+", "hygiene": "o", "awareness": "o"}, "\u4e0a\u6d77\u5e02": {"name": "\u4e0a\u6d77\u5e02", "latitude": 31.228743, "longitude": 121.462987, "population": 24240, "connections": ["\u5e83\u5cf6\u5e02", "\u6b66\u6c49\u5e02", "\u6771\u4eac", "Port-au-Prince", "\u0623\u0633\u0645\u0631\u0629", "Nassau", "\u0628\u063a\u062f\u0627\u062f", "\u0928\u0908 \u0926\u093f\u0932\u094d\u0932\u0940", "\u0627\u0644\u062e\u0631\u0637\u0648\u0645", "\u6606\u660e\u5e02", "Los Angeles", "\u5317\u4eac\u5e02", "Chicago"], "economy": "+", "government": "++", "hygiene": "+", "awareness": "+"}, "\u4e34\u6c82\u5e02": {"name": "\u4e34\u6c82\u5e02", "latitude": 35.103643, "longitude": 118.349429, "population": 10440, "connections": ["\u957f\u6625\u5e02", "Porto-Novo", "Lima", "Bras\u00edlia", "\u041d\u043e\u0432\u043e\u0441\u0438\u0431\u0438\u0440\u0441\u043a", "\u041f\u043e\u0434\u0433\u043e\u0440\u0438\u0446\u0430", "\u041c\u043e\u0441\u043a\u0432\u0430", "\u0e01\u0e23\u0e38\u0e07\u0e40\u0e17\u0e1e\u0e21\u0e2b\u0e32\u0e19\u0e04\u0e23", "New York City"], "economy": "++", "government": "+", "hygiene": "+", "awareness": "o"}, "\u4e4c\u9c81\u6728\u9f50\u5e02": {"name": "\u4e4c\u9c81\u6728\u9f50\u5e02", "latitude": 43.826398, "longitude": 88, "population": 3520, "connections": ["\u0423\u043b\u0430\u0430\u043d\u0431\u0430\u0430\u0442\u0430\u0440", "Stockholm", "\u0635\u0646\u0639\u0627\u0621\u200e", "Kampala", "Melbourne", "\u0422\u043e\u0448\u043a\u0435\u043d\u0442", "Bak\u0131", "K\u00f8benhavn"], "economy": "+", "government": "o", "hygiene": "+", "awareness": "+"}, "\u5317\u4eac\u5e02": {"name": "\u5317\u4eac\u5e02", "latitude": 39.909058, "longitude": 116.420775, "population": 21540, "connections": ["\u4e0a\u6d77\u5e02", "Georgetown (Guyana)", "K\u00f8benhavn", "\u6b66\u6c49\u5e02", "\u6771\u4eac", "Montevideo", "Houston", "Buenos Aires", "\u09a2\u09be\u0995\u09be"], "economy": "+", "government": "+", "hygiene": "++", "awareness": "+"}, "\u53a6\u95e8\u5e02": {"name": "\u53a6\u95e8\u5e02", "latitude": 24.478244, "longitude": 118.088262, "population": 2520, "connections": ["Salt Lake City", "Budapest", "Brazzaville", "\u0d9a\u0ddc\u0dc5\u0db9", "Bucure\u0219ti", "Kigali"], "economy": "+", "government": "+", "hygiene": "o", "awareness": "o"}, "\u53f0\u5317": {"name": "\u53f0\u5317", "latitude": 25.040803, "longitude": 121.553061, "population": 2674, "connections": ["\u0915\u093e\u0920\u092e\u093e\u0921\u094c\u0901", "Charlotte", "Ciudad de Guatemala", "El Paso", "Bamako", "Porto Alegre", "Madrid", "Las Vegas", "Denver"], "economy": "+", "government": "o", "hygiene": "+", "awareness": "o"}, "\u5e83\u5cf6\u5e02": {"name": "\u5e83\u5cf6\u5e02", "latitude": 34.391966, "longitude": 132.456186, "population": 1194, "connections": ["\u0639\u0645\u0627\u0646", "Lungsod ng Maynila", "Chicago", "\u0628\u064a\u0631\u0648\u062a", "\u4e0a\u6d77\u5e02"], "economy": "o", "government": "+", "hygiene": "+", "awareness": "++"}, "\u6210\u90fd\u5e02": {"name": "\u6210\u90fd\u5e02", "latitude": 30.57868, "longitude": 104.072105, "population": 15710, "connections": ["Atlanta", "\u062f\u0645\u0634\u0642", "Vilnius", "Rio de Janeiro", "\u897f\u5b89\u5e02", "\u0e01\u0e23\u0e38\u0e07\u0e40\u0e17\u0e1e\u0e21\u0e2b\u0e32\u0e19\u0e04\u0e23", "Tirana", "Warszawa", "Jakarta"], "economy": "+", "government": "+", "hygiene": "++", "awareness": "o"}, "\u6606\u660e\u5e02": {"name": "\u6606\u660e\u5e02", "latitude": 24.883738, "longitude": 102.8255, "population": 6728, "connections": ["Bucure\u0219ti", "Kigali", "\u0627\u0644\u0631\u0650\u0651\u0628\u064e\u0627\u0637\u200e", "\u0627\u0644\u0645\u0646\u0627\u0645\u0629", "\u4e0a\u6d77\u5e02", "\u0627\u0644\u062e\u0631\u0637\u0648\u0645", "\u09a2\u09be\u0995\u09be", "London"], "economy": "o", "government": "+", "hygiene": "+", "awareness": "++"}, "\u6771\u4eac": {"name": "\u6771\u4eac", "latitude": 35.682386, "longitude": 139.753906, "population": 37555, "connections": ["Reykjav\u00edk", "\u4e0a\u6d77\u5e02", "\u5317\u4eac\u5e02", "New Orleans", "El Paso", "\u041a\u0438\u0457\u0432", "\u0627\u0644\u062e\u0631\u0637\u0648\u0645", "Jakarta", "\u897f\u5b89\u5e02", "\u0643\u0648\u0627\u0644\u0627 \u0644\u0648\u0645\u06a4\u0648\u0631"], "economy": "o", "government": "+", "hygiene": "+", "awareness": "++"}, "\u6b66\u6c49\u5e02": {"name": "\u6b66\u6c49\u5e02", "latitude": 30.588732, "longitude": 114.305183, "population": 11080, "connections": ["Santiago de Chile", "\u5317\u4eac\u5e02", "\u062a\u0647\u0631\u0627\u0646", "\u0627\u0644\u0645\u0646\u0627\u0645\u0629", "\u0421\u0430\u0440\u0430\u0458\u0435\u0432\u043e", "Roma", "Monrovia", "\u4e0a\u6d77\u5e02"], "economy": "o", "government": "+", "hygiene": "o", "awareness": "o"}, "\u6fb3\u9580": {"name": "\u6fb3\u9580", "latitude": 22.198593, "longitude": 113.543892, "population": 623, "connections": ["Hamburg", "Yaound\u00e9", "Seattle", "\u0422\u043e\u0448\u043a\u0435\u043d\u0442"], "economy": "o", "government": "+", "hygiene": "o", "awareness": "o"}, "\u897f\u5b89\u5e02": {"name": "\u897f\u5b89\u5e02", "latitude": 34.341878, "longitude": 108.942458, "population": 8628, "connections": ["\u0b9a\u0bbf\u0b99\u0bcd\u0b95\u0baa\u0bcd\u0baa\u0bc2\u0bb0\u0bcd \u0b95\u0bc1\u0b9f\u0bbf\u0baf\u0bb0\u0b9a\u0bc1", "Tegucigalpa", "\u6771\u4eac", "\uc11c\uc6b8\ud2b9\ubcc4\uc2dc", "Buenos Aires", "Oslo", "Pot Mosbi", "Miami", "Dallas", "\u6210\u90fd\u5e02", "\u0928\u0908 \u0926\u093f\u0932\u094d\u0932\u0940"], "economy": "o", "government": "+", "hygiene": "o", "awareness": "+"}, "\u91cd\u5e86\u5e02": {"name": "\u91cd\u5e86\u5e02", "latitude": 29.43471, "longitude": 106.904271, "population": 30480, "connections": ["Manaus", "Houston", "Miami", "Quito", "Atlanta", "\u9999\u6e2f", "\u062a\u0647\u0631\u0627\u0646", "Prishtin\u00eb", "\u041c\u043e\u0441\u043a\u0432\u0430", "\u957f\u6625\u5e02", "Tirana"], "economy": "+", "government": "+", "hygiene": "++", "awareness": "+"}, "\u957f\u6625\u5e02": {"name": "\u957f\u6625\u5e02", "latitude": 43.814754, "longitude": 125.306995, "population": 7674, "connections": ["Warszawa", "Los Angeles", "Libreville", "\u91cd\u5e86\u5e02", "M\u00fcnchen", "\u4e34\u6c82\u5e02", "H\u00e0 N\u1ed9i", "Ljubljana"], "economy": "++", "government": "+", "hygiene": "+", "awareness": "+"}, "\u9999\u6e2f": {"name": "\u9999\u6e2f", "latitude": 22.324779, "longitude": 114.15932, "population": 7392, "connections": ["Lima", "Ankara", "Antananarivo", "\u91cd\u5e86\u5e02", "\u041f\u0435\u0442\u0440\u043e\u043f\u0430\u0432\u043b\u043e\u0432\u0441\u043a-\u041a\u0430\u043c\u0447\u0430\u0442\u0441\u043a\u0438\u0439", "Caracas", "Windhoek", "\u0627\u0644\u062e\u0631\u0637\u0648\u0645", "Jakarta"], "economy": "o", "government": "o", "hygiene": "+", "awareness": "o"}, "\uc11c\uc6b8\ud2b9\ubcc4\uc2dc": {"name": "\uc11c\uc6b8\ud2b9\ubcc4\uc2dc", "latitude": 37.55987, "longitude": 126.981275, "population": 9767, "connections": ["Ankara", "\u041f\u0435\u0442\u0440\u043e\u043f\u0430\u0432\u043b\u043e\u0432\u0441\u043a-\u041a\u0430\u043c\u0447\u0430\u0442\u0441\u043a\u0438\u0439", "\u897f\u5b89\u5e02", "Chicago", "Bruxelles", "Toulouse", "\u09a2\u09be\u0995\u09be", "\u041c\u043e\u0441\u043a\u0432\u0430", "\u0627\u0644\u0631\u064a\u0627\u0636", "Caracas"], "economy": "++", "government": "++", "hygiene": "+", "awareness": "+"}, "\ud3c9\uc591": {"name": "\ud3c9\uc591", "latitude": 39.041651, "longitude": 125.761336, "population": 3271, "connections": ["Recife", "Seattle", "Port-au-Prince", "Cape Town", "Nassau", "\u062f\u0645\u0634\u0642", "\u0645\u0633\u0642\u0637"], "economy": "o", "government": "o", "hygiene": "o", "awareness": "o"}}, "events": [{"type": "pathogenEncountered", "pathogen": {"name": "\u03a6thisis", "infectivity": "o", "mobility": "o", "duration": "o", "lethality": "o"}, "round": 1}, {"type": "pathogenEncountered", "pathogen": {"name": "N5-10", "infectivity": "+", "mobility": "++", "duration": "o", "lethality": "+"}, "round": 1}, {"type": "pathogenEncountered", "pathogen": {"name": "Plorps", "infectivity": "o", "mobility": "o", "duration": "+", "lethality": "-"}, "round": 1}, {"type": "medicationInDevelopment", "pathogen": {"name": "N5-10", "infectivity": "+", "mobility": "++", "duration": "o", "lethality": "+"}, "sinceRound": 1, "untilRound": 4}, {"type": "medicationInDevelopment", "pathogen": {"name": "Plorps", "infectivity": "o", "mobility": "o", "duration": "+", "lethality": "-"}, "sinceRound": 1, "untilRound": 4}]}